com_insee,com_nom,reg_nom,dep_nom,latitude_mairie,longitude_mairie,score_de_ville
01171,Géovreisset,Auvergne-Rhône-Alpes,Ain,46.251,5.613,0.3257318845676244
01330,Ruffieu,Auvergne-Rhône-Alpes,Ain,46.004,5.653,0.3278543919452408
01042,Bey,Auvergne-Rhône-Alpes,Ain,46.219,4.846,0.3163946748163213
01129,Crans,Auvergne-Rhône-Alpes,Ain,45.966,5.195,0.3084357180019792
01227,Magnieu,Auvergne-Rhône-Alpes,Ain,45.775,5.715,0.3406307160570101
01019,Armix,Auvergne-Rhône-Alpes,Ain,45.854,5.584,0.306941528470615
01234,Marignieu,Auvergne-Rhône-Alpes,Ain,45.801,5.716,0.3248931567466713
01428,Valeins,Auvergne-Rhône-Alpes,Ain,46.115,4.866,0.3123042949847904
01023,Asnières-sur-Saône,Auvergne-Rhône-Alpes,Ain,46.386,4.884,0.3015130535444328
01277,Nivollet-Montgriffon,Auvergne-Rhône-Alpes,Ain,46.0,5.458,0.308908477882149
01359,Saint-Germain-sur-Renon,Auvergne-Rhône-Alpes,Ain,46.08,5.061,0.3227816443247351
01242,Mérignat,Auvergne-Rhône-Alpes,Ain,46.065,5.442,0.3179663591391424
01214,Leyssard,Auvergne-Rhône-Alpes,Ain,46.162,5.476,0.317204885487056
01036,Valromey-sur-Séran,Auvergne-Rhône-Alpes,Ain,45.885,5.651,0.3379378222817941
01382,Sainte-Olive,Auvergne-Rhône-Alpes,Ain,46.014,4.936,0.3546019477453196
01146,Dompierre-sur-Chalaronne,Auvergne-Rhône-Alpes,Ain,46.142,4.901,0.3126141626216781
01013,Arandas,Auvergne-Rhône-Alpes,Ain,45.891,5.499,0.2956610940383454
01400,Seillonnaz,Auvergne-Rhône-Alpes,Ain,45.798,5.498,0.2999488962070765
01056,Boyeux-Saint-Jérôme,Auvergne-Rhône-Alpes,Ain,46.036,5.463,0.3044301506740697
01100,Cheignieu-la-Balme,Auvergne-Rhône-Alpes,Ain,45.823,5.605,0.2992310842797028
01309,Pouillat,Auvergne-Rhône-Alpes,Ain,46.322,5.423,0.309063067662801
01066,La Burbanche,Auvergne-Rhône-Alpes,Ain,45.86,5.546,0.2854889929933449
01177,Grand-Corent,Auvergne-Rhône-Alpes,Ain,46.207,5.433,0.3094555649591372
01193,Izieu,Auvergne-Rhône-Alpes,Ain,45.656,5.639,0.3026397608988453
01456,Vongnes,Auvergne-Rhône-Alpes,Ain,45.813,5.725,0.3384813342218341
01077,Challes-la-Montagne,Auvergne-Rhône-Alpes,Ain,46.122,5.458,0.3039349918474477
01051,Bolozon,Auvergne-Rhône-Alpes,Ain,46.196,5.471,0.409843305566874
01317,Ramasse,Auvergne-Rhône-Alpes,Ain,46.191,5.356,0.3287695974998425
01433,Vernoux,Auvergne-Rhône-Alpes,Ain,46.485,5.106,0.3258537217067946
01016,Arbigny,Auvergne-Rhône-Alpes,Ain,46.478,4.96,0.3064880211164284
01106,Cize,Auvergne-Rhône-Alpes,Ain,46.2,5.451,0.310040863520279
01101,Chevillard,Auvergne-Rhône-Alpes,Ain,46.11,5.581,0.3103509514124774
01280,Ordonnaz,Auvergne-Rhône-Alpes,Ain,45.834,5.54,0.2966746726052965
01067,Ceignes,Auvergne-Rhône-Alpes,Ain,46.126,5.495,0.3827261170889205
01215,Surjoux-Lhopital,Auvergne-Rhône-Alpes,Ain,46.024,5.762,0.3175116205429935
01162,Flaxieu,Auvergne-Rhône-Alpes,Ain,45.811,5.745,0.3280711955563127
01002,L'Abergement-de-Varey,Auvergne-Rhône-Alpes,Ain,46.009,5.428,0.3182325456509212
01110,Colomieu,Auvergne-Rhône-Alpes,Ain,45.736,5.627,0.2993974281377419
01035,Belleydoux,Auvergne-Rhône-Alpes,Ain,46.253,5.785,0.3306917183228723
01174,Giron,Auvergne-Rhône-Alpes,Ain,46.223,5.78,0.3108089383868265
01045,Birieux,Auvergne-Rhône-Alpes,Ain,45.953,5.037,0.3461864610125206
01230,Mantenay-Montlin,Auvergne-Rhône-Alpes,Ain,46.43,5.107,0.3096336810348669
01121,Corlier,Auvergne-Rhône-Alpes,Ain,46.034,5.496,0.3276412861526544
01052,Bouligneux,Auvergne-Rhône-Alpes,Ain,46.023,4.992,0.3422548457290934
01039,Béon,Auvergne-Rhône-Alpes,Ain,45.857,5.752,
01293,Peyriat,Auvergne-Rhône-Alpes,Ain,46.15,5.506,0.3205852617655091
01111,Conand,Auvergne-Rhône-Alpes,Ain,45.884,5.475,0.2991232276922088
01406,Servignat,Auvergne-Rhône-Alpes,Ain,46.435,5.056,0.3061481027256187
01331,Saint-Alban,Auvergne-Rhône-Alpes,Ain,46.098,5.456,0.3112488912726115
01437,Vescours,Auvergne-Rhône-Alpes,Ain,46.474,5.026,0.3241678377942864
01076,Chaley,Auvergne-Rhône-Alpes,Ain,45.953,5.537,0.2984705650116249
01334,Saint-André-d'Huiriat,Auvergne-Rhône-Alpes,Ain,46.214,4.913,0.3012126153146435
01302,Pollieu,Auvergne-Rhône-Alpes,Ain,45.796,5.748,0.329165485482685
01298,Plagne,Auvergne-Rhône-Alpes,Ain,46.188,5.718,0.2953027882634602
01296,Pirajoux,Auvergne-Rhône-Alpes,Ain,46.386,5.274,0.3278286727530939
01085,La Chapelle-du-Châtelard,Auvergne-Rhône-Alpes,Ain,46.074,5.022,0.3370911706809117
01310,Prémeyzel,Auvergne-Rhône-Alpes,Ain,45.681,5.644,0.3105337653222566
01387,Saint-Sulpice,Auvergne-Rhône-Alpes,Ain,46.321,5.042,0.3909550686345597
01107,Cleyzieu,Auvergne-Rhône-Alpes,Ain,45.902,5.433,0.2920969350736673
01141,Cuzieu,Auvergne-Rhône-Alpes,Ain,45.82,5.677,0.3209681349750294
01127,Courmangoux,Auvergne-Rhône-Alpes,Ain,46.327,5.356,0.3260028033674191
01233,Marchamp,Auvergne-Rhône-Alpes,Ain,45.774,5.55,0.3111192825964589
01225,Lurcy,Auvergne-Rhône-Alpes,Ain,46.062,4.781,0.306295953840135
01117,Conzieu,Auvergne-Rhône-Alpes,Ain,45.725,5.604,0.2984437749411509
01208,Lavours,Auvergne-Rhône-Alpes,Ain,45.811,5.773,0.3269300251535682
01128,Courtes,Auvergne-Rhône-Alpes,Ain,46.457,5.111,0.3205351042956876
01391,Salavre,Auvergne-Rhône-Alpes,Ain,46.364,5.347,0.3217379609276565
01207,Lapeyrouse,Auvergne-Rhône-Alpes,Ain,45.986,4.982,0.401193003297622
01356,Saint-Georges-sur-Renon,Auvergne-Rhône-Alpes,Ain,46.104,5.03,0.3265286737553001
01009,Andert-et-Condon,Auvergne-Rhône-Alpes,Ain,45.787,5.658,0.3245651312150946
01329,Rossillon,Auvergne-Rhône-Alpes,Ain,45.836,5.599,0.3038740436271154
01190,Innimond,Auvergne-Rhône-Alpes,Ain,45.792,5.574,0.3016639900907215
01311,Prémillieu,Auvergne-Rhône-Alpes,Ain,45.876,5.565,0.303344907958106
01279,Oncieu,Auvergne-Rhône-Alpes,Ain,45.965,5.472,0.3051120203637047
01439,Vésines,Auvergne-Rhône-Alpes,Ain,46.359,4.863,0.3205260776152141
01392,Samognat,Auvergne-Rhône-Alpes,Ain,46.265,5.586,0.3295628687772775
01432,Verjon,Auvergne-Rhône-Alpes,Ain,46.346,5.348,0.3296684542756756
01006,Ambléon,Auvergne-Rhône-Alpes,Ain,45.75,5.594,0.2992475001616129
01268,Murs-et-Gélignieux,Auvergne-Rhône-Alpes,Ain,45.642,5.66,0.3337182228065553
01404,Serrières-sur-Ain,Auvergne-Rhône-Alpes,Ain,46.147,5.45,0.3359209961238476
02369,Harcigny,Hauts-de-France,Aisne,49.803,3.983,0.2996350078282499
02036,Augy,Hauts-de-France,Aisne,49.34,3.511,0.2780369542002607
02385,Housset,Hauts-de-France,Aisne,49.796,3.695,0.2866391100678861
02207,Commenchon,Hauts-de-France,Aisne,49.642,3.151,0.2781402936971047
02395,Jumencourt,Hauts-de-France,Aisne,49.512,3.349,0.2634607280069085
02496,Monnes,Hauts-de-France,Aisne,49.146,3.229,0.2669274306321475
02609,Ployart-et-Vaurseine,Hauts-de-France,Aisne,49.493,3.74,0.2730024216996687
02511,Montigny-en-Arrouaise,Hauts-de-France,Aisne,49.912,3.483,0.3001541584297717
02655,Ronchères,Hauts-de-France,Aisne,49.14,3.602,0.2884437130297424
02565,Œuilly,Hauts-de-France,Aisne,49.393,3.682,0.2704187042890484
02005,Aguilcourt,Hauts-de-France,Aisne,49.394,3.968,0.3574156006532091
02638,Remies,Hauts-de-France,Aisne,49.679,3.525,0.271149661366707
02518,Montlevon,Hauts-de-France,Aisne,48.963,3.515,0.2812362027914992
02707,Septvaux,Hauts-de-France,Aisne,49.57,3.387,0.2772444926032737
02548,La Neuville-lès-Dorengt,Hauts-de-France,Aisne,49.983,3.686,0.3136157970323591
02812,Villers-Hélon,Hauts-de-France,Aisne,49.265,3.268,0.2671126282761215
02697,Samoussy,Hauts-de-France,Aisne,49.587,3.743,0.2994211050968252
02817,Ville-Savoye,Hauts-de-France,Aisne,49.293,3.638,0.2646410124039994
02591,Pargny-les-Bois,Hauts-de-France,Aisne,49.732,3.618,0.287610586235404
02632,Quincy-Basse,Hauts-de-France,Aisne,49.509,3.385,0.2661612665296786
02061,Becquigny,Hauts-de-France,Aisne,50.016,3.459,0.2820924378986472
02760,La Vallée-Mulâtre,Hauts-de-France,Aisne,50.026,3.561,0.2802490461281599
02764,Vassogne,Hauts-de-France,Aisne,49.42,3.73,0.2748794572855606
02627,Proviseux-et-Plesnoy,Hauts-de-France,Aisne,49.478,4.016,0.2831277514119773
02048,Barenton-sur-Serre,Hauts-de-France,Aisne,49.668,3.689,0.2851858058974542
02184,Chevresis-Monceau,Hauts-de-France,Aisne,49.762,3.584,0.2754410405567052
02004,Agnicourt-et-Séchelles,Hauts-de-France,Aisne,49.717,3.96,0.2849850958740395
02354,Grandrieux,Hauts-de-France,Aisne,49.729,4.188,0.2877267413001212
02446,Ly-Fontaine,Hauts-de-France,Aisne,49.732,3.311,0.2864789882243962
02162,La Chapelle-sur-Chézy,Hauts-de-France,Aisne,48.949,3.377,0.275156865295155
02729,Soucy,Hauts-de-France,Aisne,49.321,3.123,0.2704583517635984
02267,Dommiers,Hauts-de-France,Aisne,49.329,3.216,0.2862753490557465
02773,Vauxtin,Hauts-de-France,Aisne,49.346,3.602,0.2890274213933627
02455,Malzy,Hauts-de-France,Aisne,49.921,3.73,0.2654652112321879
02233,Cramaille,Hauts-de-France,Aisne,49.229,3.452,0.2821743140470967
02622,Priez,Hauts-de-France,Aisne,49.131,3.263,0.2611483502402935
02142,Castres,Hauts-de-France,Aisne,49.801,3.253,0.3586480045937884
02746,Travecy,Hauts-de-France,Aisne,49.686,3.345,0.2672416907486766
02645,Reuilly-Sauvigny,Hauts-de-France,Aisne,49.051,3.564,0.2907629635471295
02777,Vendières,Hauts-de-France,Aisne,48.873,3.443,0.2739305046780884
02356,Grisolles,Hauts-de-France,Aisne,49.13,3.372,0.3581238974730848
02533,Muret-et-Crouttes,Hauts-de-France,Aisne,49.278,3.435,0.2713141621885047
02448,Mâchecourt,Hauts-de-France,Aisne,49.652,3.838,0.2814476669599659
02099,Bonnesvalyn,Hauts-de-France,Aisne,49.126,3.325,0.2691808658692018
02451,Magny-la-Fosse,Hauts-de-France,Aisne,49.937,3.276,0.2895491554080296
02032,Aubigny-aux-Kaisnes,Hauts-de-France,Aisne,49.772,3.119,0.2739249916388328
02501,Montchâlons,Hauts-de-France,Aisne,49.513,3.727,0.270363894317354
02647,Ribeauville,Hauts-de-France,Aisne,50.037,3.588,0.2838561073547013
02642,Résigny,Hauts-de-France,Aisne,49.741,4.21,0.274079480254798
02449,Macogny,Hauts-de-France,Aisne,49.159,3.218,0.266758206910412
02188,Chigny,Hauts-de-France,Aisne,49.93,3.775,0.2823323145289709
02442,Loupeigne,Hauts-de-France,Aisne,49.241,3.525,0.2907597348003715
02794,Vézilly,Hauts-de-France,Aisne,49.187,3.683,0.2804545466429841
02252,Cuissy-et-Geny,Hauts-de-France,Aisne,49.404,3.706,0.266273357076969
02447,Maast-et-Violaine,Hauts-de-France,Aisne,49.293,3.457,0.2776086925220278
02230,Couvrelles,Hauts-de-France,Aisne,49.334,3.485,0.2743040973423661
02678,Sainte-Geneviève,Hauts-de-France,Aisne,49.725,4.074,0.2880909381981757
02723,Soize,Hauts-de-France,Aisne,49.698,4.086,0.3031883457610207
02210,Condé-sur-Aisne,Hauts-de-France,Aisne,49.401,3.466,0.2783425134323089
02406,Landricourt,Hauts-de-France,Aisne,49.505,3.37,0.2761024970413473
02166,Chartèves,Hauts-de-France,Aisne,49.09,3.509,0.3029423003130821
02493,Monceau-le-Waast,Hauts-de-France,Aisne,49.622,3.717,0.2878304747863493
02278,Éparcy,Hauts-de-France,Aisne,49.886,4.07,0.2743996974720723
02717,Séry-lès-Mézières,Hauts-de-France,Aisne,49.765,3.423,0.2679942083126912
02695,Saint-Thibaut,Hauts-de-France,Aisne,49.289,3.616,
02403,Landifay-et-Bertaignemont,Hauts-de-France,Aisne,49.826,3.604,0.287975927213202
02790,Vesles-et-Caumont,Hauts-de-France,Aisne,49.675,3.79,0.2815803310416882
02189,Chivres-en-Laonnois,Hauts-de-France,Aisne,49.627,3.856,0.2998832115020522
02577,Ostel,Hauts-de-France,Aisne,49.43,3.565,0.278794880937807
02742,Thiernu,Hauts-de-France,Aisne,49.765,3.78,0.295295569721797
02444,Lugny,Hauts-de-France,Aisne,49.782,3.812,0.3152317840533878
02672,Saint-Bandry,Hauts-de-France,Aisne,49.364,3.15,0.2696876840541965
02457,Marchais,Hauts-de-France,Aisne,49.585,3.822,0.2967787396839215
02526,Morgny-en-Thiérache,Hauts-de-France,Aisne,49.754,4.076,0.2973107705983729
02021,Archon,Hauts-de-France,Aisne,49.744,4.119,0.2991097781866185
02280,Épieds,Hauts-de-France,Aisne,49.104,3.451,0.29595648012263
02685,Saint-Nicolas-aux-Bois,Hauts-de-France,Aisne,49.597,3.439,0.2773512372044041
02466,Marizy-Sainte-Geneviève,Hauts-de-France,Aisne,49.182,3.198,0.265364786608006
02635,Ramicourt,Hauts-de-France,Aisne,49.958,3.331,0.278552107353421
02322,Fontaine-Notre-Dame,Hauts-de-France,Aisne,49.879,3.424,0.2790702323666145
02462,Mareuil-en-Dôle,Hauts-de-France,Aisne,49.242,3.561,0.2906450686226502
02235,Craonnelle,Hauts-de-France,Aisne,49.426,3.777,0.2834459109238337
02104,Bouffignereux,Hauts-de-France,Aisne,49.379,3.846,0.2749947441454231
02121,Breny,Hauts-de-France,Aisne,49.184,3.35,0.3490003411558773
02432,Limé,Hauts-de-France,Aisne,49.324,3.555,0.277517360434676
02197,Clairfontaine,Hauts-de-France,Aisne,49.974,3.987,0.312382797729903
02562,Nouvron-Vingré,Hauts-de-France,Aisne,49.433,3.188,0.2587484971554838
02317,Fluquières,Hauts-de-France,Aisne,49.8,3.157,0.2715748450110146
02689,Saint-Pierremont,Hauts-de-France,Aisne,49.714,3.876,0.2822312448966408
02223,Courboin,Hauts-de-France,Aisne,48.996,3.507,0.2927530787940125
02069,Berlise,Hauts-de-France,Aisne,49.662,4.113,0.3008432758439542
02038,Les Autels,Hauts-de-France,Aisne,49.761,4.224,0.2826472982100474
02505,Montfaucon,Hauts-de-France,Aisne,48.947,3.432,0.2690225110678707
02728,Sorbais,Hauts-de-France,Aisne,49.914,3.883,0.2698470179504458
02402,Lanchy,Hauts-de-France,Aisne,49.829,3.074,0.2639640359149279
02637,Remaucourt,Hauts-de-France,Aisne,49.895,3.35,0.2862583970519548
02256,Dagny-Lambercy,Hauts-de-France,Aisne,49.769,4.042,0.2982188429326117
02116,Braye-en-Thiérache,Hauts-de-France,Aisne,49.768,3.963,0.28408870133304
02797,Viel-Arcy,Hauts-de-France,Aisne,49.379,3.626,0.2718437129949681
02799,Vierzy,Hauts-de-France,Aisne,49.287,3.278,0.3464729680386028
02491,Monceau-le-Neuf-et-Faucouzy,Hauts-de-France,Aisne,49.785,3.631,0.3008958436352288
02270,Douchy,Hauts-de-France,Aisne,49.794,3.13,0.269152489722204
02481,Mesnil-Saint-Laurent,Hauts-de-France,Aisne,49.829,3.364,0.3064353132095868
02349,Goudelancourt-lès-Berrieux,Hauts-de-France,Aisne,49.495,3.859,0.2904697511427604
02828,Vregny,Hauts-de-France,Aisne,49.414,3.42,0.3019957232668231
02391,Jeantes,Hauts-de-France,Aisne,49.813,4.067,0.294518944980024
02127,Bruyères-sur-Fère,Hauts-de-France,Aisne,49.2,3.445,0.2788442648706762
02396,Jumigny,Hauts-de-France,Aisne,49.408,3.725,0.2762864991714063
02221,Coupru,Hauts-de-France,Aisne,49.031,3.274,0.270379140496144
02097,Boncourt,Hauts-de-France,Aisne,49.626,3.956,0.2958733888311198
02784,Petit-Verly,Hauts-de-France,Aisne,49.958,3.563,0.2800777385633176
02675,Sainte-Croix,Hauts-de-France,Aisne,49.48,3.781,0.28747209459057
02471,Martigny-Courpierre,Hauts-de-France,Aisne,49.49,3.687,0.2828083830570522
02151,Cerny-lès-Bucy,Hauts-de-France,Aisne,49.578,3.546,0.2934715801532431
02204,Coingt,Hauts-de-France,Aisne,49.792,4.096,0.2869507750411218
02024,Arrancy,Hauts-de-France,Aisne,49.499,3.765,0.270703358164082
02115,Braye-en-Laonnois,Hauts-de-France,Aisne,49.438,3.61,0.2728393825272889
02155,Chaillevois,Hauts-de-France,Aisne,49.508,3.522,0.2888007805832154
02120,Brenelle,Hauts-de-France,Aisne,49.368,3.544,0.3113050190634731
02727,Sons-et-Ronchères,Hauts-de-France,Aisne,49.769,3.668,0.2811907365769813
02338,Froidmont-Cohartille,Hauts-de-France,Aisne,49.682,3.721,0.2932347370134287
02522,Mont-Saint-Jean,Hauts-de-France,Aisne,49.793,4.211,0.2868591238624568
02779,Vénérolles,Hauts-de-France,Aisne,49.99,3.63,0.2833402129481647
02177,Chérêt,Hauts-de-France,Aisne,49.514,3.687,0.284885200758885
02263,Dhuizel,Hauts-de-France,Aisne,49.36,3.615,0.2819773771012486
02601,Pignicourt,Hauts-de-France,Aisne,49.409,4.03,0.2640114045157012
02248,Cuirieux,Hauts-de-France,Aisne,49.683,3.82,0.2788234164724346
02388,Iviers,Hauts-de-France,Aisne,49.786,4.136,0.2917159885320816
02808,Villeret,Hauts-de-France,Aisne,49.949,3.188,0.277315990538779
02015,Ancienville,Hauts-de-France,Aisne,49.219,3.208,0.2679863126731719
02102,Bouconville-Vauclair,Hauts-de-France,Aisne,49.461,3.757,0.2849106010488568
02118,Braye,Hauts-de-France,Aisne,49.422,3.378,0.2859348631459884
02698,Sancy-les-Cheminots,Hauts-de-France,Aisne,49.439,3.476,0.2835847359171618
02122,Brie,Hauts-de-France,Aisne,49.597,3.473,0.2858060294811385
02489,Molinchart,Hauts-de-France,Aisne,49.562,3.54,0.2971061664621975
02358,Grougis,Hauts-de-France,Aisne,49.951,3.531,0.3073341714952939
02488,Molain,Hauts-de-France,Aisne,50.034,3.53,0.2822821014428348
02454,La Malmaison,Hauts-de-France,Aisne,49.516,4.001,0.3024034320377474
02255,Cys-la-Commune,Hauts-de-France,Aisne,49.384,3.572,0.268115814223185
02182,Chevennes,Hauts-de-France,Aisne,49.818,3.737,0.2825257118744161
02169,Châtillon-lès-Sons,Hauts-de-France,Aisne,49.762,3.703,0.280845008764061
02718,Silly-la-Poterie,Hauts-de-France,Aisne,49.196,3.15,0.2732372211710698
02040,Autreppes,Hauts-de-France,Aisne,49.897,3.856,0.2721038611710766
02302,Faverolles,Hauts-de-France,Aisne,49.227,3.178,0.2729603007458003
02033,Aubigny-en-Laonnois,Hauts-de-France,Aisne,49.497,3.793,0.2911006517041925
02551,Neuville-sur-Margival,Hauts-de-France,Aisne,49.455,3.399,0.277830432765243
02664,Rozoy-Bellevalle,Hauts-de-France,Aisne,48.924,3.45,0.2800276651251774
02651,Rogécourt,Hauts-de-France,Aisne,49.649,3.416,0.2770684192665462
02022,Arcy-Sainte-Restitue,Hauts-de-France,Aisne,49.255,3.478,0.2791811181371133
02778,Vendresse-Beaulne,Hauts-de-France,Aisne,49.432,3.657,0.2716163721735023
02607,Ploisy,Hauts-de-France,Aisne,49.331,3.275,0.2810393301591275
02523,Mont-Saint-Martin,Hauts-de-France,Aisne,49.275,3.643,0.2792888293734594
02513,Montigny-le-Franc,Hauts-de-France,Aisne,49.688,3.918,0.296773177475205
02043,Bagneux,Hauts-de-France,Aisne,49.46,3.28,0.265151456361639
02801,Vigneux-Hocquet,Hauts-de-France,Aisne,49.744,3.995,0.3039062817335799
02616,Pont-Saint-Mard,Hauts-de-France,Aisne,49.494,3.279,0.2669383217115585
02100,Bony,Hauts-de-France,Aisne,49.991,3.221,0.2932163268576106
02066,Benay,Hauts-de-France,Aisne,49.755,3.309,0.2920608918729527
02594,Passy-en-Valois,Hauts-de-France,Aisne,49.162,3.184,0.2628492338127518
02587,Parfondru,Hauts-de-France,Aisne,49.538,3.704,0.279197105522185
02819,Vincy-Reuil-et-Magny,Hauts-de-France,Aisne,49.714,4.045,0.2891899718612727
02094,Blesmes,Hauts-de-France,Aisne,49.026,3.464,0.3053423757502216
02654,Romery,Hauts-de-France,Aisne,49.888,3.733,0.2652650110045944
02409,Lappion,Hauts-de-France,Aisne,49.59,3.965,0.3022243794689323
02636,Regny,Hauts-de-France,Aisne,49.834,3.421,0.3576085539888805
02800,Viffort,Hauts-de-France,Aisne,48.958,3.47,0.2853415214611704
02216,Corcy,Hauts-de-France,Aisne,49.255,3.197,0.3456129494334784
02583,Pancy-Courtecon,Hauts-de-France,Aisne,49.461,3.65,0.2728542540021543
02537,Nanteuil-la-Fosse,Hauts-de-France,Aisne,49.434,3.448,0.2911958769712985
02809,Villers-Agron-Aiguizy,Hauts-de-France,Aisne,49.163,3.716,0.2853114388488325
02826,Voulpaix,Hauts-de-France,Aisne,49.839,3.833,0.3153737648026792
02711,Serches,Hauts-de-France,Aisne,49.332,3.45,0.2855632590051131
02200,Clermont-les-Fermes,Hauts-de-France,Aisne,49.66,3.943,0.3084993657859055
02679,Saint-Gengoulph,Hauts-de-France,Aisne,49.119,3.215,0.2606230553644107
02582,Paissy,Hauts-de-France,Aisne,49.426,3.702,0.2808656934479542
02715,Serval,Hauts-de-France,Aisne,49.352,3.683,0.2836729681471021
02006,Aisonville-et-Bernoville,Hauts-de-France,Aisne,49.93,3.511,0.2908175676025625
02206,Colonfay,Hauts-de-France,Aisne,49.858,3.711,0.2752090531407438
02623,Prisces,Hauts-de-France,Aisne,49.772,3.863,0.2877669628656364
02662,Rozet-Saint-Albin,Hauts-de-France,Aisne,49.198,3.297,0.2651904521878586
02272,Droizy,Hauts-de-France,Aisne,49.277,3.39,0.2589518958188719
02062,Belleau,Hauts-de-France,Aisne,49.083,3.3,0.2693275432003928
02774,Vendelles,Hauts-de-France,Aisne,49.908,3.138,0.2693781260791571
02343,Germaine,Hauts-de-France,Aisne,49.812,3.119,0.3466976026669959
02506,Montgobert,Hauts-de-France,Aisne,49.29,3.174,0.2788015762657554
02051,Barzy-sur-Marne,Hauts-de-France,Aisne,49.091,3.562,0.3015322713105292
02508,Monthenault,Hauts-de-France,Aisne,49.489,3.656,0.2743262778870346
02129,Bruys,Hauts-de-France,Aisne,49.262,3.569,0.2748816044355147
02765,Vaucelles-et-Beffecourt,Hauts-de-France,Aisne,49.521,3.559,0.2995760178648618
02823,Voharies,Hauts-de-France,Aisne,49.787,3.792,0.2943348902870988
02535,Nampcelles-la-Cour,Hauts-de-France,Aisne,49.777,4.002,0.2995808535366381
02667,Saconin-et-Breuil,Hauts-de-France,Aisne,49.351,3.247,0.2742127021513381
02641,Renneval,Hauts-de-France,Aisne,49.739,4.037,0.3055449714351595
02347,Gland,Hauts-de-France,Aisne,49.058,3.457,0.301518932956571
02782,Le Verguier,Hauts-de-France,Aisne,49.923,3.169,0.2746160744681234
02281,L'Épine-aux-Bois,Hauts-de-France,Aisne,48.899,3.444,0.2770626610670348
02568,Oigny-en-Valois,Hauts-de-France,Aisne,49.214,3.13,0.2665931003863594
02473,Mayot,Hauts-de-France,Aisne,49.709,3.398,0.2643097263976033
02175,Chavigny,Hauts-de-France,Aisne,49.423,3.306,0.2638469600202955
02683,Saint-Martin-Rivière,Hauts-de-France,Aisne,50.044,3.555,0.2791913309927961
02699,Saponay,Hauts-de-France,Aisne,49.214,3.484,0.299286538425883
02740,Thenailles,Hauts-de-France,Aisne,49.815,3.952,0.2845810954566606
02265,Dohis,Hauts-de-France,Aisne,49.767,4.142,0.2884336715290243
02030,Aubencheul-aux-Bois,Hauts-de-France,Aisne,50.024,3.261,0.2878715778843103
02570,Ollezy,Hauts-de-France,Aisne,49.73,3.146,0.2735853132006057
02716,Servais,Hauts-de-France,Aisne,49.619,3.342,0.2711283275086048
02688,Saint-Pierre-lès-Franqueville,Hauts-de-France,Aisne,49.824,3.814,0.2895897876237617
02792,Veuilly-la-Poterie,Hauts-de-France,Aisne,49.083,3.219,0.2626227615467924
02332,Fresnes-en-Tardenois,Hauts-de-France,Aisne,49.143,3.549,0.3141074193020544
02012,Ambrief,Hauts-de-France,Aisne,49.322,3.404,0.280707517697141
02241,La Croix-sur-Ourcq,Hauts-de-France,Aisne,49.16,3.35,0.264970840092406
02277,Épagny,Hauts-de-France,Aisne,49.472,3.254,0.2538048363080321
02392,Joncourt,Hauts-de-France,Aisne,49.96,3.304,0.2807889322097616
02415,Laversine,Hauts-de-France,Aisne,49.353,3.155,0.2770638777196858
02744,Torcy-en-Valois,Hauts-de-France,Aisne,49.083,3.274,0.2755061646316513
02550,Neuville-sur-Ailette,Hauts-de-France,Aisne,49.47,3.698,0.2734295658222344
02266,Dolignon,Hauts-de-France,Aisne,49.734,4.086,0.2966207371930252
02251,Cuiry-lès-Iviers,Hauts-de-France,Aisne,49.766,4.104,0.2943156497060291
02214,Contescourt,Hauts-de-France,Aisne,49.792,3.234,0.2829311999492086
02829,Vuillery,Hauts-de-France,Aisne,49.431,3.388,0.2835692410148837
02192,Chouy,Hauts-de-France,Aisne,49.217,3.247,0.2736371875455262
02670,Saint-Algis,Hauts-de-France,Aisne,49.894,3.826,0.2707732136798862
02010,Allemant,Hauts-de-France,Aisne,49.462,3.454,0.2905786398537147
02586,Parfondeval,Hauts-de-France,Aisne,49.744,4.162,0.3036912283432775
02052,Bassoles-Aulers,Hauts-de-France,Aisne,49.533,3.385,0.2663593759874141
02320,Fontaine-lès-Clercs,Hauts-de-France,Aisne,49.808,3.212,0.3025023371950025
02419,Leschelle,Hauts-de-France,Aisne,49.961,3.777,0.2825681353964827
02152,Cerseuil,Hauts-de-France,Aisne,49.325,3.518,0.285854501399416
02079,Besmont,Hauts-de-France,Aisne,49.823,4.118,0.2829553570816093
02629,Puisieux-et-Clanlieu,Hauts-de-France,Aisne,49.847,3.664,0.2787204831912351
02136,Burelles,Hauts-de-France,Aisne,49.769,3.912,0.3040381025421501
02649,Rocourt-Saint-Martin,Hauts-de-France,Aisne,49.145,3.389,0.2775877740820848
02640,Renansart,Hauts-de-France,Aisne,49.734,3.453,0.280779267547249
02674,Saint-Clément,Hauts-de-France,Aisne,49.775,4.073,0.3698894837194686
02144,Caulaincourt,Hauts-de-France,Aisne,49.865,3.111,0.2690611220209081
02029,Attilly,Hauts-de-France,Aisne,49.855,3.154,0.2810333120740434
02159,Champs,Hauts-de-France,Aisne,49.544,3.262,0.2878106961963418
02612,Pont-Arcy,Hauts-de-France,Aisne,49.392,3.62,0.2658289712437367
02138,Buzancy,Hauts-de-France,Aisne,49.31,3.348,0.2825714399878824
02538,Nanteuil-Notre-Dame,Hauts-de-France,Aisne,49.191,3.412,0.2734082958043886
02023,Armentières-sur-Ourcq,Hauts-de-France,Aisne,49.173,3.388,0.2775532794224944
02096,Bois-lès-Pargny,Hauts-de-France,Aisne,49.737,3.654,0.2828598540988512
02749,Troësnes,Hauts-de-France,Aisne,49.198,3.177,0.2703468057933982
02019,Annois,Hauts-de-France,Aisne,49.721,3.176,0.2790795066965421
02534,Muscourt,Hauts-de-France,Aisne,49.36,3.744,0.2737919089188554
02507,Montgru-Saint-Hilaire,Hauts-de-France,Aisne,49.177,3.327,0.2653694472051657
02087,Bieuxy,Hauts-de-France,Aisne,49.448,3.27,0.2682442722579326
02222,Courbes,Hauts-de-France,Aisne,49.682,3.46,0.2682470952391097
02712,Sergy,Hauts-de-France,Aisne,49.183,3.571,0.2800539852948112
02803,La Ville-aux-Bois-lès-Pontavert,Hauts-de-France,Aisne,49.427,3.851,0.2947605454909487
02393,Jouaignes,Hauts-de-France,Aisne,49.293,3.528,0.2866232805097792
02732,Surfontaine,Hauts-de-France,Aisne,49.747,3.48,0.280586596008745
02709,Serain,Hauts-de-France,Aisne,50.025,3.363,0.3125715258981469
02783,Grand-Verly,Hauts-de-France,Aisne,49.943,3.581,0.2708392951503488
02804,Villemontoire,Hauts-de-France,Aisne,49.3,3.322,0.2811597089821175
02411,Latilly,Hauts-de-France,Aisne,49.154,3.312,0.272383127654668
02772,Vaux-en-Vermandois,Hauts-de-France,Aisne,49.824,3.136,0.2682331575991646
02375,Hautevesnes,Hauts-de-France,Aisne,49.109,3.236,0.2545161361763881
02198,Clamecy,Hauts-de-France,Aisne,49.428,3.364,0.3601247992568048
02271,Dravegny,Hauts-de-France,Aisne,49.239,3.641,0.280019939614896
02377,Haution,Hauts-de-France,Aisne,49.872,3.827,0.2831005034685388
02091,Blanzy-lès-Fismes,Hauts-de-France,Aisne,49.337,3.672,0.2846031372112454
02324,Fontenelle,Hauts-de-France,Aisne,50.031,3.846,0.2828497672001494
02034,Audignicourt,Hauts-de-France,Aisne,49.478,3.127,0.2580496223029337
02178,Chermizy-Ailles,Hauts-de-France,Aisne,49.463,3.72,0.2760249733835113
02132,Bucy-lès-Cerny,Hauts-de-France,Aisne,49.579,3.497,0.2960857022118541
02080,Besny-et-Loizy,Hauts-de-France,Aisne,49.593,3.577,0.3094254239262311
02547,La Neuville-Housset,Hauts-de-France,Aisne,49.788,3.732,0.2773855480877306
02458,Dhuys et Morin-en-Brie,Hauts-de-France,Aisne,48.894,3.493,0.2931681961129752
02536,Nampteuil-sous-Muret,Hauts-de-France,Aisne,49.305,3.434,0.272889468078063
02747,Trefcon,Hauts-de-France,Aisne,49.859,3.089,0.2658498299822793
02316,Fleury,Hauts-de-France,Aisne,49.265,3.16,0.26605774670559
02125,Brumetz,Hauts-de-France,Aisne,49.11,3.153,0.2564831240438934
02007,Aizelles,Hauts-de-France,Aisne,49.485,3.819,0.286961136472347
02751,Trucy,Hauts-de-France,Aisne,49.472,3.611,0.2736877572971242
02657,Rougeries,Hauts-de-France,Aisne,49.806,3.787,0.2919291397341455
02578,Oulches-la-Vallée-Foulon,Hauts-de-France,Aisne,49.431,3.74,0.2983204591988008
02234,Craonne,Hauts-de-France,Aisne,49.448,3.792,0.2828853145262103
02531,Moussy-Verneuil,Hauts-de-France,Aisne,49.413,3.637,0.2698141073361997
02171,Chaudardes,Hauts-de-France,Aisne,49.396,3.789,0.2605314727915403
02708,Sequehart,Hauts-de-France,Aisne,49.932,3.341,0.2764139420753887
02579,Oulchy-la-Ville,Hauts-de-France,Aisne,49.21,3.341,0.2710156118215402
02467,Marizy-Saint-Mard,Hauts-de-France,Aisne,49.182,3.228,0.2656324498652267
02183,Chevregny,Hauts-de-France,Aisne,49.466,3.594,0.2753439116289875
02592,Parpeville,Hauts-de-France,Aisne,49.794,3.564,0.2791463537127779
02107,Bourguignon-sous-Coucy,Hauts-de-France,Aisne,49.543,3.154,0.2629926862900741
02063,Bellenglise,Hauts-de-France,Aisne,49.926,3.244,0.3024982846540069
02557,Noroy-sur-Ourcq,Hauts-de-France,Aisne,49.204,3.207,0.2683538491302435
02077,Berzy-le-Sec,Hauts-de-France,Aisne,49.317,3.297,
02482,Meurival,Hauts-de-France,Aisne,49.357,3.759,0.2720408759365776
02626,Prouvais,Hauts-de-France,Aisne,49.476,3.972,0.284249653298935
02606,Le Plessier-Huleu,Hauts-de-France,Aisne,49.239,3.348,0.2662785583542498
02156,Chalandry,Hauts-de-France,Aisne,49.67,3.644,0.2656978779549261
02639,Remigny,Hauts-de-France,Aisne,49.714,3.295,0.2859640848572381
02386,Iron,Hauts-de-France,Aisne,49.95,3.665,0.2874077801278146
02459,Marcy,Hauts-de-France,Aisne,49.854,3.411,0.2719925149974636
02561,Nouvion-le-Vineux,Hauts-de-France,Aisne,49.509,3.605,0.2870967143293136
02400,Laffaux,Hauts-de-France,Aisne,49.45,3.43,0.292253586480255
02149,Cerizy,Hauts-de-France,Aisne,49.767,3.333,0.2964506531161601
02055,Beaumé,Hauts-de-France,Aisne,49.821,4.152,0.2858463405614372
02196,Clacy-et-Thierret,Hauts-de-France,Aisne,49.552,3.566,0.375116016632794
02310,Fieulaine,Hauts-de-France,Aisne,49.902,3.446,0.2875372080826014
02563,Noyales,Hauts-de-France,Aisne,49.908,3.538,0.2754896654246766
02350,Goudelancourt-lès-Pierrepont,Hauts-de-France,Aisne,49.678,3.852,0.287912758636697
02297,Étrépilly,Hauts-de-France,Aisne,49.082,3.348,0.2679295678360332
02431,Liez,Hauts-de-France,Aisne,49.692,3.3,0.2874880268664845
02351,Goussancourt,Hauts-de-France,Aisne,49.161,3.657,0.2881601242997484
02440,Lor,Hauts-de-France,Aisne,49.53,4.054,0.2932638085135357
02585,Parcy-et-Tigny,Hauts-de-France,Aisne,49.27,3.329,0.2694372583872114
02090,Billy-sur-Ourcq,Hauts-de-France,Aisne,49.222,3.299,0.2651710946019165
02181,Chéry-lès-Rozoy,Hauts-de-France,Aisne,49.722,4.101,0.2955817447160894
02366,Hannapes,Hauts-de-France,Aisne,49.977,3.614,0.2827659994229665
02335,Fressancourt,Hauts-de-France,Aisne,49.628,3.427,0.2817222357268054
02088,Bièvres,Hauts-de-France,Aisne,49.492,3.714,0.3508328590925657
02413,Laval-en-Laonnois,Hauts-de-France,Aisne,49.503,3.588,0.299088377324878
02573,Orgeval,Hauts-de-France,Aisne,49.504,3.703,0.2727063793644747
02345,Gibercourt,Hauts-de-France,Aisne,49.739,3.283,0.3053018069963711
02294,Étouvelles,Hauts-de-France,Aisne,49.519,3.582,0.3009631354383364
02357,Gronard,Hauts-de-France,Aisne,49.796,3.882,0.2965645787835899
02084,Bézu-le-Guéry,Hauts-de-France,Aisne,49.01,3.228,0.2683652569718812
02834,Wissignicourt,Hauts-de-France,Aisne,49.53,3.441,0.2729946613960083
02486,Missy-lès-Pierrepont,Hauts-de-France,Aisne,49.628,3.784,0.281880864641125
02273,Dury,Hauts-de-France,Aisne,49.751,3.134,0.2734367196203122
02428,Licy-Clignon,Hauts-de-France,Aisne,49.102,3.265,0.2700680501558024
02072,Berrieux,Hauts-de-France,Aisne,49.482,3.852,0.2925715470553712
02229,Courtrizy-et-Fussigny,Hauts-de-France,Aisne,49.514,3.795,0.2851780055752997
02164,Le Charmel,Hauts-de-France,Aisne,49.112,3.541,0.3026644167528879
02824,Vorges,Hauts-de-France,Aisne,49.518,3.651,0.2802208637312482
02739,Terny-Sorny,Hauts-de-France,Aisne,49.447,3.369,0.2769405502350279
02068,Berlancourt,Hauts-de-France,Aisne,49.781,3.757,0.287515858243961
02327,Foreste,Hauts-de-France,Aisne,49.806,3.096,0.2665136358885629
02806,Villeneuve-sur-Fère,Hauts-de-France,Aisne,49.171,3.476,0.2849876908095653
02693,Saint-Rémy-Blanzy,Hauts-de-France,Aisne,49.246,3.308,0.2632915724078692
02101,Bosmont-sur-Serre,Hauts-de-France,Aisne,49.739,3.867,0.2831195947269983
02039,Autremencourt,Hauts-de-France,Aisne,49.705,3.794,0.2710912397159717
02261,Dercy,Hauts-de-France,Aisne,49.71,3.685,0.3610401716044298
02793,Vézaponin,Hauts-de-France,Aisne,49.467,3.223,0.2654070724612787
02515,Montigny-lès-Condé,Hauts-de-France,Aisne,48.983,3.566,0.2950686654434095
02067,Bergues-sur-Sambre,Hauts-de-France,Aisne,50.03,3.711,0.2839504772858615
02060,Beauvois-en-Vermandois,Hauts-de-France,Aisne,49.834,3.103,0.2677944081832787
02528,Mortefontaine,Hauts-de-France,Aisne,49.336,3.08,0.2716600920773183
02696,Saint-Thomas,Hauts-de-France,Aisne,49.501,3.819,0.2883531022280222
02150,Cerny-en-Laonnois,Hauts-de-France,Aisne,49.45,3.68,0.2830043497030297
02082,Beugneux,Hauts-de-France,Aisne,49.228,3.416,0.2745727055671164
02589,Pargny-Filain,Hauts-de-France,Aisne,49.463,3.539,0.2991269257225021
02549,Neuville-Saint-Amand,Hauts-de-France,Aisne,49.821,3.334,0.2967972990069746
02227,Courmont,Hauts-de-France,Aisne,49.138,3.576,0.2915678122227112
02331,Franqueville,Hauts-de-France,Aisne,49.816,3.798,0.291843359248348
02453,Maizy,Hauts-de-France,Aisne,49.377,3.716,0.2648264329367408
02721,Sissy,Hauts-de-France,Aisne,49.811,3.421,0.2688086359457653
02342,Gergny,Hauts-de-France,Aisne,49.933,3.93,0.2738572204186919
02599,Pierremande,Hauts-de-France,Aisne,49.567,3.258,0.2853925608866906
02754,Ugny-le-Gay,Hauts-de-France,Aisne,49.661,3.157,0.2805958984240519
02042,Azy-sur-Marne,Hauts-de-France,Aisne,49.004,3.359,0.2824374845073867
02389,Jaulgonne,Hauts-de-France,Aisne,49.09,3.534,0.3692824771923613
02117,Bray-Saint-Christophe,Hauts-de-France,Aisne,49.775,3.141,0.2719185677115361
02075,Berthenicourt,Hauts-de-France,Aisne,49.779,3.372,0.2675641786004057
02412,Launoy,Hauts-de-France,Aisne,49.263,3.405,0.2655588110838129
02682,Saint-Mard,Hauts-de-France,Aisne,49.381,3.589,0.3496073198369016
02148,Celles-sur-Aisne,Hauts-de-France,Aisne,49.416,3.474,0.2819252900109869
02786,Verneuil-sous-Coucy,Hauts-de-France,Aisne,49.545,3.319,0.2700554291584709
02417,Lempire,Hauts-de-France,Aisne,49.995,3.174,0.2824128421155697
02658,Roupy,Hauts-de-France,Aisne,49.812,3.182,0.299958639029845
02244,Crupilly,Hauts-de-France,Aisne,49.931,3.752,0.2632032380487832
02650,Rocquigny,Hauts-de-France,Aisne,50.019,3.973,0.2756899616831342
02556,Noircourt,Hauts-de-France,Aisne,49.669,4.094,0.3072704411881157
02194,Cilly,Hauts-de-France,Aisne,49.749,3.84,0.2845373637631777
02745,Toulis-et-Attencourt,Hauts-de-France,Aisne,49.697,3.75,0.2879463549725231
02254,Cutry,Hauts-de-France,Aisne,49.344,3.191,0.2701518497589
02438,Longpont,Hauts-de-France,Aisne,49.284,3.221,0.3641598196375068
02240,Croix-Fonsomme,Hauts-de-France,Aisne,49.931,3.394,0.279666597361752
02119,Brécy,Hauts-de-France,Aisne,49.14,3.424,0.2869417710177508
02170,Châtillon-sur-Oise,Hauts-de-France,Aisne,49.794,3.416,0.2694721187087323
02027,Assis-sur-Serre,Hauts-de-France,Aisne,49.68,3.555,0.2602045231757914
02736,Tartiers,Hauts-de-France,Aisne,49.44,3.232,0.2677896537716433
02008,Aizy-Jouy,Hauts-de-France,Aisne,49.438,3.512,0.2812317016517027
02333,Fresnes-sous-Coucy,Hauts-de-France,Aisne,49.555,3.37,0.2673923456160782
02098,Bonneil,Hauts-de-France,Aisne,49.008,3.346,0.2814468706404938
02735,Tannières,Hauts-de-France,Aisne,49.287,3.55,0.2815198881263837
02380,Hinacourt,Hauts-de-France,Aisne,49.746,3.294,0.2881327435238426
02441,Louâtre,Hauts-de-France,Aisne,49.253,3.242,0.2682555597616945
02832,Wiège-Faty,Hauts-de-France,Aisne,49.883,3.713,0.2730667985314924
02364,Guyencourt,Hauts-de-France,Aisne,49.357,3.841,0.269793259858257
02143,Le Catelet,Hauts-de-France,Aisne,50.001,3.242,0.3088946666682423
02269,Dorengt,Hauts-de-France,Aisne,49.965,3.703,0.2872546209144323
02452,Maissemy,Hauts-de-France,Aisne,49.893,3.189,0.2806924658792563
02464,Margival,Hauts-de-France,Aisne,49.433,3.406,0.3683381508167444
02429,Lierval,Hauts-de-France,Aisne,49.488,3.622,0.267917114110641
02659,Rouvroy,Hauts-de-France,Aisne,49.858,3.333,0.2974402833456129
02323,Fontaine-Uterte,Hauts-de-France,Aisne,49.925,3.368,0.2797317282764231
02250,Cuiry-lès-Chaudardes,Hauts-de-France,Aisne,49.39,3.762,0.266774484165821
02076,Bertricourt,Hauts-de-France,Aisne,49.398,4.012,0.2764900696044656
02572,Orainville,Hauts-de-France,Aisne,49.376,4.016,0.2796519606178466
02514,Montigny-Lengrain,Hauts-de-France,Aisne,49.373,3.099,0.2957428812716847
02796,Vichel-Nanteuil,Hauts-de-France,Aisne,49.182,3.299,0.3613029908891319
02053,Vallées en Champagne,Hauts-de-France,Aisne,48.99,3.605,0.2897026864646337
02407,Laniscourt,Hauts-de-France,Aisne,49.547,3.534,0.2949781014437203
02193,Cierges,Hauts-de-France,Aisne,49.165,3.604,0.2843727579581002
02529,Mortiers,Hauts-de-France,Aisne,49.694,3.664,0.2713029211054271
02353,Grandlup-et-Fay,Hauts-de-France,Aisne,49.651,3.736,0.2867989976112472
02390,Jeancourt,Hauts-de-France,Aisne,49.929,3.148,0.2696849086397072
02595,Passy-sur-Marne,Hauts-de-France,Aisne,49.066,3.574,0.2886419843571115
02424,Leury,Hauts-de-France,Aisne,49.427,3.341,0.2809073164190095
02373,Hary,Hauts-de-France,Aisne,49.797,3.919,0.2963485510658722
02463,Marfontaine,Hauts-de-France,Aisne,49.808,3.764,0.2868418515209326
02530,Moulins,Hauts-de-France,Aisne,49.42,3.679,0.3558299598807965
02253,Cuisy-en-Almont,Hauts-de-France,Aisne,49.421,3.249,0.2787041456392558
02485,Missy-aux-Bois,Hauts-de-France,Aisne,49.335,3.247,0.2806555110724248
02704,Selens,Hauts-de-France,Aisne,49.494,3.206,0.268453318900466
02724,Sommelans,Hauts-de-France,Aisne,49.135,3.293,0.2565290396721053
02262,Deuillet,Hauts-de-France,Aisne,49.629,3.36,0.2753998217637266
02205,Colligis-Crandelain,Hauts-de-France,Aisne,49.467,3.63,0.2717400171323065
02731,Le Sourd,Hauts-de-France,Aisne,49.866,3.752,0.2802595763793017
02044,Bancigny,Hauts-de-France,Aisne,49.798,4.037,0.2942999971230417
02337,Froidestrées,Hauts-de-France,Aisne,49.943,3.91,0.2829392497615009
02311,Filain,Hauts-de-France,Aisne,49.453,3.557,0.2882045009489712
02713,Seringes-et-Nesles,Hauts-de-France,Aisne,49.212,3.559,0.3023177199654752
02652,Rogny,Hauts-de-France,Aisne,49.767,3.821,0.2976784462341494
02418,Lerzy,Hauts-de-France,Aisne,49.95,3.881,0.2786149130735824
02443,Lucy-le-Bocage,Hauts-de-France,Aisne,49.055,3.276,0.2799759643374046
02499,Montbavin,Hauts-de-France,Aisne,49.53,3.513,0.2853325178033149
02401,Laigny,Hauts-de-France,Aisne,49.863,3.861,0.286148743984351
02421,Lesges,Hauts-de-France,Aisne,49.31,3.5,0.2910307462051406
02284,Erloy,Hauts-de-France,Aisne,49.92,3.838,0.2594920808469807
02762,Vassens,Hauts-de-France,Aisne,49.476,3.156,0.2631033361387349
02590,Pargny-la-Dhuys,Hauts-de-France,Aisne,48.955,3.564,0.2920683349911822
02634,Raillimont,Hauts-de-France,Aisne,49.702,4.159,0.2923450831459799
02414,Lavaqueresse,Hauts-de-France,Aisne,49.946,3.717,0.2886220654975849
02726,Sommette-Eaucourt,Hauts-de-France,Aisne,49.727,3.12,0.2801424664015927
02615,Pontruet,Hauts-de-France,Aisne,49.915,3.23,0.2802396056644276
02445,Luzoir,Hauts-de-France,Aisne,49.927,3.96,0.2747630856634488
02016,Andelain,Hauts-de-France,Aisne,49.641,3.37,0.2743666429541404
02584,Papleux,Hauts-de-France,Aisne,50.017,3.88,0.2731431408778249
02376,Hauteville,Hauts-de-France,Aisne,49.888,3.524,0.2730949409358273
02814,Villers-lès-Guise,Hauts-de-France,Aisne,49.926,3.682,0.2863954947501212
02625,Proix,Hauts-de-France,Aisne,49.902,3.574,0.2792315088489646
02705,La Selve,Hauts-de-France,Aisne,49.57,3.995,0.3011749969239523
02208,Concevreux,Hauts-de-France,Aisne,49.376,3.788,0.2730833013488441
02761,Variscourt,Hauts-de-France,Aisne,49.415,3.981,0.2606188714770791
02056,Beaumont-en-Beine,Hauts-de-France,Aisne,49.688,3.131,0.2763375335344642
02225,Courchamps,Hauts-de-France,Aisne,49.116,3.263,0.2611405792313317
02588,Pargnan,Hauts-de-France,Aisne,49.394,3.703,0.2611130718302064
02660,Rouvroy-sur-Serre,Hauts-de-France,Aisne,49.715,4.176,0.2835394090722722
02490,Monampteuil,Hauts-de-France,Aisne,49.476,3.574,0.3209651520041521
02663,Rozières-sur-Crise,Hauts-de-France,Aisne,49.323,3.371,0.2777320500156816
02427,Lhuys,Hauts-de-France,Aisne,49.273,3.542,0.2818742912441533
02725,Sommeron,Hauts-de-France,Aisne,49.957,3.946,0.2890744080192577
02480,Mesbrecourt-Richecourt,Hauts-de-France,Aisne,49.71,3.537,0.2600246419270306
02517,Montigny-sur-Crécy,Hauts-de-France,Aisne,49.715,3.584,0.2819718085683418
02802,La Ville-aux-Bois-lès-Dizy,Hauts-de-France,Aisne,49.663,3.982,0.294707583228468
02274,Ébouleau,Hauts-de-France,Aisne,49.678,3.883,0.2886499482663884
02687,Saint-Pierre-Aigle,Hauts-de-France,Aisne,49.312,3.196,0.2749407858031336
02791,Veslud,Hauts-de-France,Aisne,49.539,3.731,0.2858952718538121
02435,Logny-lès-Aubenton,Hauts-de-France,Aisne,49.833,4.22,0.2858350174047663
02665,Grand-Rozoy,Hauts-de-France,Aisne,49.242,3.382,0.2748349238176452
02179,Chéry-Chartreuve,Hauts-de-France,Aisne,49.256,3.605,0.2814740544247618
02516,Montigny-sous-Marle,Hauts-de-France,Aisne,49.741,3.804,0.277369627138454
02542,Neuflieux,Hauts-de-France,Aisne,49.616,3.16,0.2827565821456944
02766,Vaudesson,Hauts-de-France,Aisne,49.475,3.487,0.2804660478755516
02509,Monthiers,Hauts-de-France,Aisne,49.109,3.294,0.2613631544211707
02105,Bouresches,Hauts-de-France,Aisne,49.067,3.317,0.2843638408137362
02614,Pontru,Hauts-de-France,Aisne,49.922,3.201,0.2869655379737773
02752,Tugny-et-Pont,Hauts-de-France,Aisne,49.77,3.161,0.2719449872398818
02137,Bussiares,Hauts-de-France,Aisne,49.077,3.25,0.2716615226686044
02384,Houry,Hauts-de-France,Aisne,49.786,3.848,0.2879278065925725
02767,Vauxrezis,Hauts-de-France,Aisne,49.42,3.277,0.2789452844239354
02362,Guivry,Hauts-de-France,Aisne,49.652,3.121,0.279353484376843
02289,Essises,Hauts-de-France,Aisne,48.967,3.414,0.2836959490543298
02257,Dallon,Hauts-de-France,Aisne,49.824,3.23,0.292906236459228
02633,Quincy-sous-le-Mont,Hauts-de-France,Aisne,49.308,3.559,0.2845270770025464
02276,Englancourt,Hauts-de-France,Aisne,49.926,3.807,0.2663719291998487
02341,Gercy,Hauts-de-France,Aisne,49.816,3.871,0.2980659111965677
02605,Pleine-Selve,Hauts-de-France,Aisne,49.797,3.526,0.2815834952762924
02146,Celles-lès-Condé,Hauts-de-France,Aisne,49.015,3.57,0.2923359097603115
02690,Sainte-Preuve,Hauts-de-France,Aisne,49.617,3.911,0.2987255092981539
02604,Pithon,Hauts-de-France,Aisne,49.756,3.104,0.2739331649363433
03054,Chapeau,Auvergne-Rhône-Alpes,Allier,46.492,3.516,0.3045239824124806
03244,Saint-Marcel-en-Marcillat,Auvergne-Rhône-Alpes,Allier,46.153,2.581,0.3237296894523659
03144,Liernolles,Auvergne-Rhône-Alpes,Allier,46.399,3.768,0.3101193868971888
03002,Agonges,Auvergne-Rhône-Alpes,Allier,46.618,3.149,0.3149255595366792
03175,Monestier,Auvergne-Rhône-Alpes,Allier,46.263,3.104,0.3146683771220962
03255,Saint-Priest-d'Andelot,Auvergne-Rhône-Alpes,Allier,46.077,3.154,0.3085657142552896
03198,Neure,Auvergne-Rhône-Alpes,Allier,46.745,2.98,0.3154693944707425
03015,Bagneux,Auvergne-Rhône-Alpes,Allier,46.646,3.204,0.3100758353567076
03263,Saint-Voir,Auvergne-Rhône-Alpes,Allier,46.41,3.506,0.2972334351329746
03077,Chirat-l'Église,Auvergne-Rhône-Alpes,Allier,46.246,3.032,0.2997685909674403
03231,Saint-Fargeol,Auvergne-Rhône-Alpes,Allier,46.134,2.631,0.3333008944565148
03270,Sazeret,Auvergne-Rhône-Alpes,Allier,46.347,2.97,0.3432536604179904
03219,Saint-Bonnet-de-Four,Auvergne-Rhône-Alpes,Allier,46.315,2.905,0.3141796362237593
03243,Saint-Marcel-en-Murat,Auvergne-Rhône-Alpes,Allier,46.322,3.005,0.3140905800628994
03177,Monétay-sur-Loire,Auvergne-Rhône-Alpes,Allier,46.435,3.825,0.3294777592605567
03134,Laféline,Auvergne-Rhône-Alpes,Allier,46.345,3.176,0.3196054770417612
03284,Thionne,Auvergne-Rhône-Alpes,Allier,46.412,3.573,0.3180768280558726
03311,Vicq,Auvergne-Rhône-Alpes,Allier,46.147,3.096,0.3280090119017728
03137,Langy,Auvergne-Rhône-Alpes,Allier,46.273,3.462,0.3062866707516932
03276,Sussat,Auvergne-Rhône-Alpes,Allier,46.152,3.056,0.3125432886181233
03064,Château-sur-Allier,Auvergne-Rhône-Alpes,Allier,46.782,2.987,0.3227512723781349
03130,Isle-et-Bardais,Auvergne-Rhône-Alpes,Allier,46.682,2.777,0.3201699923507984
03032,Blomard,Auvergne-Rhône-Alpes,Allier,46.288,2.963,0.315461471542493
03081,Colombier,Auvergne-Rhône-Alpes,Allier,46.267,2.794,0.3093854882645465
03151,Louroux-de-Beaune,Auvergne-Rhône-Alpes,Allier,46.3,2.859,0.3103087666037288
03096,Deneuille-lès-Chantelle,Auvergne-Rhône-Alpes,Allier,46.253,3.146,0.3121157019261238
03125,La Guillermie,Auvergne-Rhône-Alpes,Allier,45.981,3.645,0.2849044863203287
03261,Sainte-Thérence,Auvergne-Rhône-Alpes,Allier,46.243,2.573,0.2909950589852554
03294,Ussel-d'Allier,Auvergne-Rhône-Alpes,Allier,46.21,3.19,0.3208002204849519
03181,Montcombroux-les-Mines,Auvergne-Rhône-Alpes,Allier,46.361,3.728,0.3289743790677529
03116,Fourilles,Auvergne-Rhône-Alpes,Allier,46.244,3.198,0.317801070734497
03075,Chezelle,Auvergne-Rhône-Alpes,Allier,46.213,3.112,0.3075694636790259
03218,Saint-Aubin-le-Monial,Auvergne-Rhône-Alpes,Allier,46.536,3.001,0.301591760629998
03124,Gouise,Auvergne-Rhône-Alpes,Allier,46.411,3.438,0.3143477887486055
03136,Lamaids,Auvergne-Rhône-Alpes,Allier,46.304,2.438,0.3034273426090014
03021,Bègues,Auvergne-Rhône-Alpes,Allier,46.123,3.143,0.3193004841312175
03067,Châtelperron,Auvergne-Rhône-Alpes,Allier,46.397,3.633,0.3126518920260604
03047,La Celle,Auvergne-Rhône-Alpes,Allier,46.228,2.779,0.3099621714795632
03209,Poëzat,Auvergne-Rhône-Alpes,Allier,46.076,3.227,0.3069753445331153
03068,Châtelus,Auvergne-Rhône-Alpes,Allier,46.198,3.725,0.2968055595834265
03033,Bost,Auvergne-Rhône-Alpes,Allier,46.183,3.506,0.3090123540724571
03295,Valignat,Auvergne-Rhône-Alpes,Allier,46.174,3.078,0.3093024633616481
03170,Meillers,Auvergne-Rhône-Alpes,Allier,46.513,3.103,0.3131051182501457
03078,Chouvigny,Auvergne-Rhône-Alpes,Allier,46.126,3.005,0.2980423290194489
03066,Châtel-Montagne,Auvergne-Rhône-Alpes,Allier,46.1,3.717,0.3598474567856466
03249,Saint-Palais,Auvergne-Rhône-Alpes,Allier,46.44,2.306,0.295703233987157
03282,Theneuille,Auvergne-Rhône-Alpes,Allier,46.588,2.88,0.3216422707231478
03061,Charmes,Auvergne-Rhône-Alpes,Allier,46.083,3.246,0.3800828944239174
03260,Saint-Sornin,Auvergne-Rhône-Alpes,Allier,46.412,3.004,0.3151401602350209
03256,Saint-Priest-en-Murat,Auvergne-Rhône-Alpes,Allier,46.356,2.903,0.3127100745407845
03285,Tortezais,Auvergne-Rhône-Alpes,Allier,46.446,2.873,0.3076241958118459
03269,Sauvagny,Auvergne-Rhône-Alpes,Allier,46.434,2.8,0.3066001011986125
03097,Deneuille-les-Mines,Auvergne-Rhône-Alpes,Allier,46.378,2.776,0.3201420647046384
03017,Barrais-Bussolles,Auvergne-Rhône-Alpes,Allier,46.284,3.698,0.3078893366620856
03016,Barberier,Auvergne-Rhône-Alpes,Allier,46.22,3.249,0.3125235433256401
03122,Gipcy,Auvergne-Rhône-Alpes,Allier,46.511,3.051,0.3454680064101548
03171,Mercy,Auvergne-Rhône-Alpes,Allier,46.451,3.524,0.2987327822528949
03302,Veauce,Auvergne-Rhône-Alpes,Allier,46.17,3.054,0.3069072718419402
03250,Saint-Pierre-Laval,Auvergne-Rhône-Alpes,Allier,46.196,3.77,0.3033096275082991
03004,Andelaroche,Auvergne-Rhône-Alpes,Allier,46.25,3.746,0.3099879606371492
03222,Saint-Caprais,Auvergne-Rhône-Alpes,Allier,46.545,2.74,0.3097013571715422
03257,Saint-Prix,Auvergne-Rhône-Alpes,Allier,46.225,3.649,0.3330972614273642
03076,Chézy,Auvergne-Rhône-Alpes,Allier,46.612,3.459,0.3200018420259166
03146,Limoise,Auvergne-Rhône-Alpes,Allier,46.684,3.055,0.3094372981690111
03308,Vernusse,Auvergne-Rhône-Alpes,Allier,46.26,2.972,0.303771041320871
03194,Naves,Auvergne-Rhône-Alpes,Allier,46.176,3.116,0.3256615116782263
03147,Loddes,Auvergne-Rhône-Alpes,Allier,46.295,3.761,0.3024977428864753
03014,Avrilly,Auvergne-Rhône-Alpes,Allier,46.332,3.967,0.310703334602725
03278,Taxat-Senat,Auvergne-Rhône-Alpes,Allier,46.208,3.146,0.3077076072315254
03227,Saint-Didier-la-Forêt,Auvergne-Rhône-Alpes,Allier,46.229,3.336,0.329155928335074
03089,Coutansouze,Auvergne-Rhône-Alpes,Allier,46.205,3.008,0.2957082618822365
03166,Mazerier,Auvergne-Rhône-Alpes,Allier,46.132,3.182,0.3213294358911721
03172,Mesples,Auvergne-Rhône-Alpes,Allier,46.427,2.364,0.295426004118117
03024,Bert,Auvergne-Rhône-Alpes,Allier,46.328,3.702,0.3230044054111277
03245,Saint-Martin-des-Lais,Auvergne-Rhône-Alpes,Allier,46.674,3.657,0.3020143584169656
03143,Lételon,Auvergne-Rhône-Alpes,Allier,46.656,2.595,0.3083011497964917
03248,Saint-Nicolas-des-Biefs,Auvergne-Rhône-Alpes,Allier,46.063,3.795,0.3218933656990239
03162,Marigny,Auvergne-Rhône-Alpes,Allier,46.58,3.21,0.3945959676661643
03141,Lavoine,Auvergne-Rhône-Alpes,Allier,45.974,3.687,0.2937927801187765
03228,Saint-Éloy-d'Allier,Auvergne-Rhône-Alpes,Allier,46.497,2.363,0.296417862556278
03201,Nizerolles,Auvergne-Rhône-Alpes,Allier,46.107,3.644,0.3475629709592908
03192,Nades,Auvergne-Rhône-Alpes,Allier,46.154,2.969,0.3057904508152717
03059,Chareil-Cintrat,Auvergne-Rhône-Alpes,Allier,46.266,3.23,0.3203288962082308
03272,Servilly,Auvergne-Rhône-Alpes,Allier,46.28,3.59,0.308988122719098
03293,Urçay,Auvergne-Rhône-Alpes,Allier,46.634,2.614,0.3251278354099062
04201,Saumane,Provence-Alpes-Côte d'Azur,Alpes-de-Haute-Provence,44.081,5.682,0.3013247395715791
04182,Saint-Julien-d'Asse,Provence-Alpes-Côte d'Azur,Alpes-de-Haute-Provence,43.927,6.078,0.2679024898236869
04184,Saint-Jurs,Provence-Alpes-Côte d'Azur,Alpes-de-Haute-Provence,43.899,6.193,0.2953557171402325
04062,La Condamine-Châtelard,Provence-Alpes-Côte d'Azur,Alpes-de-Haute-Provence,44.463,6.696,0.3202900388319075
04130,Montlaux,Provence-Alpes-Côte d'Azur,Alpes-de-Haute-Provence,44.041,5.85,0.278315735920427
04107,Majastres,Provence-Alpes-Côte d'Azur,Alpes-de-Haute-Provence,43.898,6.284,0.2744925442217922
04085,Faucon-du-Caire,Provence-Alpes-Côte d'Azur,Alpes-de-Haute-Provence,44.396,6.104,0.2761601342180491
04181,Saint-Jeannet,Provence-Alpes-Côte d'Azur,Alpes-de-Haute-Provence,43.979,6.118,0.2652725645930322
04099,Lambruisse,Provence-Alpes-Côte d'Azur,Alpes-de-Haute-Provence,44.045,6.445,0.2673351443399943
04211,Sourribes,Provence-Alpes-Côte d'Azur,Alpes-de-Haute-Provence,44.159,6.044,0.282662688918199
04236,Vergons,Provence-Alpes-Côte d'Azur,Alpes-de-Haute-Provence,43.915,6.605,0.2785686639995338
04043,Val-de-Chalvagne,Provence-Alpes-Côte d'Azur,Alpes-de-Haute-Provence,43.905,6.766,0.2552835891692482
04169,La Rochegiron,Provence-Alpes-Côte d'Azur,Alpes-de-Haute-Provence,44.109,5.664,0.2840918191510948
04235,Verdaches,Provence-Alpes-Côte d'Azur,Alpes-de-Haute-Provence,44.268,6.343,0.2810713738390341
04007,Angles,Provence-Alpes-Côte d'Azur,Alpes-de-Haute-Provence,43.944,6.552,0.2867607419414784
04051,Châteauneuf-Miravail,Provence-Alpes-Côte d'Azur,Alpes-de-Haute-Provence,44.153,5.718,0.2604718084893508
04177,Hautes-Duyes,Provence-Alpes-Côte d'Azur,Alpes-de-Haute-Provence,44.195,6.174,0.266570729336901
04140,Les Omergues,Provence-Alpes-Côte d'Azur,Alpes-de-Haute-Provence,44.153,5.589,0.2907814497047023
04113,Marcoux,Provence-Alpes-Côte d'Azur,Alpes-de-Haute-Provence,44.128,6.28,0.294785731572165
04091,Ganagobie,Provence-Alpes-Côte d'Azur,Alpes-de-Haute-Provence,44.003,5.908,0.2627418895655325
04030,Blieux,Provence-Alpes-Côte d'Azur,Alpes-de-Haute-Provence,43.875,6.363,0.2685363288520956
04214,Tartonne,Provence-Alpes-Côte d'Azur,Alpes-de-Haute-Provence,44.078,6.384,0.261121769028745
04183,Saint-Julien-du-Verdon,Provence-Alpes-Côte d'Azur,Alpes-de-Haute-Provence,43.91,6.546,0.3234466626136722
04005,Allons,Provence-Alpes-Côte d'Azur,Alpes-de-Haute-Provence,43.98,6.59,0.2725014723834796
04087,Fontienne,Provence-Alpes-Côte d'Azur,Alpes-de-Haute-Provence,44.007,5.794,0.3145002611634732
04176,Sainte-Croix-du-Verdon,Provence-Alpes-Côte d'Azur,Alpes-de-Haute-Provence,43.764,6.152,0.3691908125230598
04084,Estoublon,Provence-Alpes-Côte d'Azur,Alpes-de-Haute-Provence,43.943,6.194,0.3165453078933087
04118,Melve,Provence-Alpes-Côte d'Azur,Alpes-de-Haute-Provence,44.356,5.993,0.2808296236533298
04202,Sausses,Provence-Alpes-Côte d'Azur,Alpes-de-Haute-Provence,44.012,6.779,0.2900523721799567
04017,Auzet,Provence-Alpes-Côte d'Azur,Alpes-de-Haute-Provence,44.305,6.311,0.3176536033143133
04224,Ubraye,Provence-Alpes-Côte d'Azur,Alpes-de-Haute-Provence,43.907,6.687,0.2640376371846458
04028,Beynes,Provence-Alpes-Côte d'Azur,Alpes-de-Haute-Provence,43.984,6.24,0.3522008401469761
04154,Pontis,Provence-Alpes-Côte d'Azur,Alpes-de-Haute-Provence,44.496,6.365,0.2615613235083367
04092,La Garde,Provence-Alpes-Côte d'Azur,Alpes-de-Haute-Provence,43.83,6.572,0.3830069313784401
04109,Mallefougasse-Augès,Provence-Alpes-Côte d'Azur,Alpes-de-Haute-Provence,44.076,5.898,0.2995480132917647
04191,Saint-Martin-lès-Seyne,Provence-Alpes-Côte d'Azur,Alpes-de-Haute-Provence,44.383,6.256,0.2953042082681116
04190,Saint-Martin-les-Eaux,Provence-Alpes-Côte d'Azur,Alpes-de-Haute-Provence,43.872,5.741,0.2541708949107066
04170,La Rochette,Provence-Alpes-Côte d'Azur,Alpes-de-Haute-Provence,43.912,6.881,0.2560660196248626
04159,Redortiers,Provence-Alpes-Côte d'Azur,Alpes-de-Haute-Provence,44.098,5.614,0.2784087325434315
04026,Bellaffaire,Provence-Alpes-Côte d'Azur,Alpes-de-Haute-Provence,44.404,6.194,0.2840904946008551
04042,Castellet-lès-Sausses,Provence-Alpes-Côte d'Azur,Alpes-de-Haute-Provence,44.04,6.734,0.2500669663680849
04101,Lardiers,Provence-Alpes-Côte d'Azur,Alpes-de-Haute-Provence,44.085,5.727,0.2928790076819443
04240,Villars-Colmars,Provence-Alpes-Côte d'Azur,Alpes-de-Haute-Provence,44.198,6.569,0.3425961936424993
04175,Sainte-Croix-à-Lauze,Provence-Alpes-Côte d'Azur,Alpes-de-Haute-Provence,43.904,5.616,0.271103757719194
04072,Draix,Provence-Alpes-Côte d'Azur,Alpes-de-Haute-Provence,44.13,6.372,0.2873208768250496
04012,Aubenas-les-Alpes,Provence-Alpes-Côte d'Azur,Alpes-de-Haute-Provence,43.934,5.677,0.2682360406520796
04067,Curel,Provence-Alpes-Côte d'Azur,Alpes-de-Haute-Provence,44.177,5.673,0.2615594316927297
04102,Le Lauzet-Ubaye,Provence-Alpes-Côte d'Azur,Alpes-de-Haute-Provence,44.433,6.419,0.3281311924263994
04037,Le Caire,Provence-Alpes-Côte d'Azur,Alpes-de-Haute-Provence,44.374,6.069,0.274719378312271
04040,Le Castellard-Mélan,Provence-Alpes-Côte d'Azur,Alpes-de-Haute-Provence,44.202,6.132,0.266570729336901
04133,Moriez,Provence-Alpes-Côte d'Azur,Alpes-de-Haute-Provence,43.964,6.462,0.2938297758604768
04136,La Mure-Argens,Provence-Alpes-Côte d'Azur,Alpes-de-Haute-Provence,44.017,6.532,0.3041981749122826
04090,Le Fugeret,Provence-Alpes-Côte d'Azur,Alpes-de-Haute-Provence,44.014,6.666,0.3111308842188881
04009,Archail,Provence-Alpes-Côte d'Azur,Alpes-de-Haute-Provence,44.111,6.331,0.2597481393105572
04204,Senez,Provence-Alpes-Côte d'Azur,Alpes-de-Haute-Provence,43.922,6.369,0.2710889650599321
04187,Saint-Lions,Provence-Alpes-Côte d'Azur,Alpes-de-Haute-Provence,43.979,6.406,0.2813676564595726
04025,Beauvezer,Provence-Alpes-Côte d'Azur,Alpes-de-Haute-Provence,44.144,6.598,0.3255192279577234
04086,Faucon-de-Barcelonnette,Provence-Alpes-Côte d'Azur,Alpes-de-Haute-Provence,44.414,6.679,0.3122362244480515
04171,Rougon,Provence-Alpes-Côte d'Azur,Alpes-de-Haute-Provence,43.797,6.393,0.3242838536220131
04095,L'Hospitalet,Provence-Alpes-Côte d'Azur,Alpes-de-Haute-Provence,44.109,5.707,0.2760680570869718
04035,Brunet,Provence-Alpes-Côte d'Azur,Alpes-de-Haute-Provence,43.886,6.033,0.2921302925900528
04023,Bayons,Provence-Alpes-Côte d'Azur,Alpes-de-Haute-Provence,44.325,6.173,0.2836623422699864
04137,Nibles,Provence-Alpes-Côte d'Azur,Alpes-de-Haute-Provence,44.289,6.009,0.2653758449824579
04167,La Robine-sur-Galabre,Provence-Alpes-Côte d'Azur,Alpes-de-Haute-Provence,44.193,6.23,0.2918964464919009
04074,Entrages,Provence-Alpes-Côte d'Azur,Alpes-de-Haute-Provence,44.038,6.269,0.2760890481165621
04093,Gigors,Provence-Alpes-Côte d'Azur,Alpes-de-Haute-Provence,44.424,6.141,0.2849328591572601
04115,Méailles,Provence-Alpes-Côte d'Azur,Alpes-de-Haute-Provence,44.04,6.645,0.2915015361504554
04164,Revest-Saint-Martin,Provence-Alpes-Côte d'Azur,Alpes-de-Haute-Provence,44.02,5.823,0.293754157478239
04179,Saint-Geniez,Provence-Alpes-Côte d'Azur,Alpes-de-Haute-Provence,44.233,6.063,0.2843234428368733
04180,Saint-Jacques,Provence-Alpes-Côte d'Azur,Alpes-de-Haute-Provence,43.977,6.371,0.2820717962163396
04129,Montjustin,Provence-Alpes-Côte d'Azur,Alpes-de-Haute-Provence,43.845,5.65,0.2802539111633082
04016,Authon,Provence-Alpes-Côte d'Azur,Alpes-de-Haute-Provence,44.249,6.151,0.2665717702738096
04155,Prads-Haute-Bléone,Provence-Alpes-Côte d'Azur,Alpes-de-Haute-Provence,44.213,6.464,0.2723807888372666
04132,Montsalier,Provence-Alpes-Côte d'Azur,Alpes-de-Haute-Provence,44.03,5.596,0.2913806622216341
04218,Thorame-Basse,Provence-Alpes-Côte d'Azur,Alpes-de-Haute-Provence,44.107,6.489,0.2884265693536648
04120,Val d'Oronaye,Provence-Alpes-Côte d'Azur,Alpes-de-Haute-Provence,44.473,6.811,0.2844680063921987
04210,Soleilhas,Provence-Alpes-Côte d'Azur,Alpes-de-Haute-Provence,43.86,6.649,0.3040191548363201
04228,Valavoire,Provence-Alpes-Côte d'Azur,Alpes-de-Haute-Provence,44.28,6.076,0.258024761727143
04148,Peyroules,Provence-Alpes-Côte d'Azur,Alpes-de-Haute-Provence,43.817,6.643,0.3511908464361259
04081,Esparron-de-Verdon,Provence-Alpes-Côte d'Azur,Alpes-de-Haute-Provence,43.744,5.989,0.3609859709823411
04241,Villemus,Provence-Alpes-Côte d'Azur,Alpes-de-Haute-Provence,43.861,5.709,0.278233366438446
04142,Oppedette,Provence-Alpes-Côte d'Azur,Alpes-de-Haute-Provence,43.931,5.593,0.2918563670804543
04237,Le Vernet,Provence-Alpes-Côte d'Azur,Alpes-de-Haute-Provence,44.277,6.403,0.310885928087756
04024,Beaujeu,Provence-Alpes-Côte d'Azur,Alpes-de-Haute-Provence,44.219,6.371,0.2592509677834558
04174,Saint-Benoît,Provence-Alpes-Côte d'Azur,Alpes-de-Haute-Provence,43.963,6.724,0.28117152433563
04054,Châteauredon,Provence-Alpes-Côte d'Azur,Alpes-de-Haute-Provence,44.026,6.224,0.2884403928829634
04055,Chaudon-Norante,Provence-Alpes-Côte d'Azur,Alpes-de-Haute-Provence,43.992,6.317,0.272239883821763
04186,Saint-Laurent-du-Verdon,Provence-Alpes-Côte d'Azur,Alpes-de-Haute-Provence,43.722,6.069,0.2831193078877562
04050,Châteaufort,Provence-Alpes-Côte d'Azur,Alpes-de-Haute-Provence,44.275,6.03,0.2833654218122532
04032,Braux,Provence-Alpes-Côte d'Azur,Alpes-de-Haute-Provence,43.993,6.699,0.2875806153988606
04069,Demandolx,Provence-Alpes-Côte d'Azur,Alpes-de-Haute-Provence,43.87,6.574,0.282267127279491
05081,Montclus,Provence-Alpes-Côte d'Azur,Hautes-Alpes,44.415,5.67,0.2998900960570209
05066,La Haute-Beaume,Provence-Alpes-Côte d'Azur,Hautes-Alpes,44.569,5.628,0.280790772195554
05184,Vitrolles,Provence-Alpes-Côte d'Azur,Hautes-Alpes,44.425,5.948,0.3578043622337271
05154,Saint-Pierre-d'Argençon,Provence-Alpes-Côte d'Azur,Hautes-Alpes,44.52,5.69,0.3190485740582552
05158,Le Saix,Provence-Alpes-Côte d'Azur,Hautes-Alpes,44.464,5.834,0.3167547115371218
05146,Saint-Julien-en-Beauchêne,Provence-Alpes-Côte d'Azur,Hautes-Alpes,44.626,5.72,0.3314102663896967
05160,Salérans,Provence-Alpes-Côte d'Azur,Hautes-Alpes,44.242,5.701,0.2741359093741538
05033,Chanousse,Provence-Alpes-Côte d'Azur,Hautes-Alpes,44.365,5.66,0.28316834509266
05167,Sigottier,Provence-Alpes-Côte d'Azur,Hautes-Alpes,44.458,5.685,0.2963592671828133
05019,La Beaume,Provence-Alpes-Côte d'Azur,Hautes-Alpes,44.548,5.654,0.2860888507805603
05060,Furmeyer,Provence-Alpes-Côte d'Azur,Hautes-Alpes,44.537,5.876,0.2897840613879577
05062,Le Glaizil,Provence-Alpes-Côte d'Azur,Hautes-Alpes,44.748,5.975,0.3201011133316029
05051,Étoile-Saint-Cyrice,Provence-Alpes-Côte d'Azur,Hautes-Alpes,44.321,5.644,0.2861808768029734
05021,Le Bersac,Provence-Alpes-Côte d'Azur,Hautes-Alpes,44.406,5.753,0.2948290670042337
05156,Saint-Sauveur,Provence-Alpes-Côte d'Azur,Hautes-Alpes,44.537,6.529,0.3040595952051903
05111,Puy-Sanières,Provence-Alpes-Côte d'Azur,Hautes-Alpes,44.556,6.437,0.323466939547795
05131,Saint-Auban-d'Oze,Provence-Alpes-Côte d'Azur,Hautes-Alpes,44.488,5.848,0.3065014416007994
05013,Barcillonnette,Provence-Alpes-Côte d'Azur,Hautes-Alpes,44.43,5.906,0.2992614387100969
05044,Crévoux,Provence-Alpes-Côte d'Azur,Hautes-Alpes,44.538,6.625,0.3304573265470467
05127,Rousset,Provence-Alpes-Côte d'Azur,Hautes-Alpes,44.484,6.267,0.3010379456291773
05064,La Chapelle-en-Valgaudémar,Provence-Alpes-Côte d'Azur,Hautes-Alpes,44.817,6.243,0.3299373588908807
05008,Aspremont,Provence-Alpes-Côte d'Azur,Hautes-Alpes,44.493,5.72,0.4005705010728404
05063,La Grave,Provence-Alpes-Côte d'Azur,Hautes-Alpes,45.06,6.284,0.3929995394450665
05095,Le Noyer,Provence-Alpes-Côte d'Azur,Hautes-Alpes,44.7,6.001,0.3053710013618088
05099,Oze,Provence-Alpes-Côte d'Azur,Hautes-Alpes,44.506,5.799,0.3272786954027874
05074,Lettret,Provence-Alpes-Côte d'Azur,Hautes-Alpes,44.481,6.073,0.2964825449178004
05056,Forest-Saint-Julien,Provence-Alpes-Côte d'Azur,Hautes-Alpes,44.63,6.141,0.3044546387826783
05032,Champoléon,Provence-Alpes-Côte d'Azur,Hautes-Alpes,44.746,6.273,0.3022676166858493
05080,Montbrand,Provence-Alpes-Côte d'Azur,Hautes-Alpes,44.592,5.668,0.2789117398484566
05022,Bréziers,Provence-Alpes-Côte d'Azur,Hautes-Alpes,44.421,6.223,0.302511892505838
05075,Manteyer,Provence-Alpes-Côte d'Azur,Hautes-Alpes,44.533,5.95,0.3401579891858108
05091,Moydans,Provence-Alpes-Côte d'Azur,Hautes-Alpes,44.41,5.509,0.2744486547756662
05182,Villar-Loubière,Provence-Alpes-Côte d'Azur,Hautes-Alpes,44.837,6.136,0.2952335966597781
05169,Sorbiers,Provence-Alpes-Côte d'Azur,Hautes-Alpes,44.362,5.573,0.2815265663559515
05016,La Bâtie-Montsaléon,Provence-Alpes-Côte d'Azur,Hautes-Alpes,44.456,5.749,0.3133848265750764
05102,La Piarre,Provence-Alpes-Côte d'Azur,Hautes-Alpes,44.478,5.648,0.2888103009296461
05135,Sainte-Colombe,Provence-Alpes-Côte d'Azur,Hautes-Alpes,44.289,5.668,0.356554950498663
05124,La Rochette,Provence-Alpes-Côte d'Azur,Hautes-Alpes,44.593,6.149,0.3283109617600319
05144,Saint-Jacques-en-Valgodemard,Provence-Alpes-Côte d'Azur,Hautes-Alpes,44.774,6.07,0.3095334440595268
05112,Rabou,Provence-Alpes-Côte d'Azur,Hautes-Alpes,44.606,6.011,0.3118244952473205
05163,Le Sauze-du-Lac,Provence-Alpes-Côte d'Azur,Hautes-Alpes,44.486,6.323,0.2835521268089795
05057,Fouillouse,Provence-Alpes-Côte d'Azur,Hautes-Alpes,44.453,6.001,0.2836845190390389
05106,Prunières,Provence-Alpes-Côte d'Azur,Hautes-Alpes,44.543,6.336,0.3109283033287949
05011,Avançon,Provence-Alpes-Côte d'Azur,Hautes-Alpes,44.534,6.191,0.2903937446959286
05035,Châteauneuf-d'Oze,Provence-Alpes-Côte d'Azur,Hautes-Alpes,44.505,5.898,0.319723292075862
05107,Puy-Saint-André,Provence-Alpes-Côte d'Azur,Hautes-Alpes,44.891,6.567,0.3238123372236012
05090,La Motte-en-Champsaur,Provence-Alpes-Côte d'Azur,Hautes-Alpes,44.741,6.129,0.3118875632466778
05009,Aspres-lès-Corps,Provence-Alpes-Côte d'Azur,Hautes-Alpes,44.813,6.001,0.3225629984744737
05155,Saint-Pierre-Avez,Provence-Alpes-Côte d'Azur,Hautes-Alpes,44.248,5.768,0.2704377141036367
05038,Château-Ville-Vieille,Provence-Alpes-Côte d'Azur,Hautes-Alpes,44.768,6.8,0.4212743549412348
05028,Chabestan,Provence-Alpes-Côte d'Azur,Hautes-Alpes,44.478,5.783,0.3166990326450276
05089,Montrond,Provence-Alpes-Côte d'Azur,Hautes-Alpes,44.387,5.746,0.3048720276163691
05094,Nossage-et-Bénévent,Provence-Alpes-Côte d'Azur,Hautes-Alpes,44.31,5.754,0.3105905914596873
05076,Méreuil,Provence-Alpes-Côte d'Azur,Hautes-Alpes,44.384,5.713,0.309087001082658
05086,Montjay,Provence-Alpes-Côte d'Azur,Hautes-Alpes,44.366,5.615,0.2700897535140138
05116,Réotier,Provence-Alpes-Côte d'Azur,Hautes-Alpes,44.681,6.565,0.2958039028039737
05073,Lazer,Provence-Alpes-Côte d'Azur,Hautes-Alpes,44.352,5.85,0.2968528378302439
05082,Mont-Dauphin,Provence-Alpes-Côte d'Azur,Hautes-Alpes,44.669,6.625,0.357661697805994
05130,Saint-Apollinaire,Provence-Alpes-Côte d'Azur,Hautes-Alpes,44.558,6.354,0.3103355827079342
05049,Esparron,Provence-Alpes-Côte d'Azur,Hautes-Alpes,44.463,5.893,0.2839184997678743
05159,Saléon,Provence-Alpes-Côte d'Azur,Hautes-Alpes,44.32,5.775,0.2985863650508895
05037,Châteauvieux,Provence-Alpes-Côte d'Azur,Hautes-Alpes,44.484,6.052,0.2965968959180375
05024,Valdoule,Provence-Alpes-Côte d'Azur,Hautes-Alpes,44.468,5.504,0.2916361142898082
05025,Buissard,Provence-Alpes-Côte d'Azur,Hautes-Alpes,44.658,6.148,0.2970267997396448
05027,Cervières,Provence-Alpes-Côte d'Azur,Hautes-Alpes,44.853,6.765,0.3254830695072312
05152,Saint-Maurice-en-Valgodemard,Provence-Alpes-Côte d'Azur,Hautes-Alpes,44.798,6.113,0.3122090697625194
05149,Saint-Léger-les-Mélèzes,Provence-Alpes-Côte d'Azur,Hautes-Alpes,44.647,6.212,0.3452587106305646
05129,Saint-André-de-Rosans,Provence-Alpes-Côte d'Azur,Hautes-Alpes,44.365,5.521,0.2952875782719777
05072,Laye,Provence-Alpes-Côte d'Azur,Hautes-Alpes,44.642,6.071,0.3171802509764724
06009,Bairols,Provence-Alpes-Côte d'Azur,Alpes-Maritimes,43.987,7.12,0.2609517267127341
06055,Duranus,Provence-Alpes-Côte d'Azur,Alpes-Maritimes,43.894,7.28,0.2876542282676946
06135,Sigale,Provence-Alpes-Côte d'Azur,Alpes-Maritimes,43.876,6.966,0.354504118462744
06001,Aiglun,Provence-Alpes-Côte d'Azur,Alpes-Maritimes,43.852,6.935,0.3106784517197764
06160,Villeneuve-d'Entraunes,Provence-Alpes-Côte d'Azur,Alpes-Maritimes,44.122,6.782,0.269784380982356
06107,La Roque-en-Provence,Provence-Alpes-Côte d'Azur,Alpes-Maritimes,43.849,6.99,0.2748715002544216
06139,Thiéry,Provence-Alpes-Côte d'Azur,Alpes-Maritimes,43.974,7.042,0.3079602737194007
06119,Saint-Dalmas-le-Selvage,Provence-Alpes-Côte d'Azur,Alpes-Maritimes,44.29,6.841,0.4203304862176297
06133,Sauze,Provence-Alpes-Côte d'Azur,Alpes-Maritimes,44.085,6.801,0.2744765511789035
06017,Bézaudun-les-Alpes,Provence-Alpes-Côte d'Azur,Alpes-Maritimes,43.804,7.094,0.300669896516715
06100,Revest-les-Roches,Provence-Alpes-Côte d'Azur,Alpes-Maritimes,43.883,7.168,0.2964423521668254
06082,Massoins,Provence-Alpes-Côte d'Azur,Alpes-Maritimes,43.948,7.124,0.3365817302139755
06076,Lieuche,Provence-Alpes-Côte d'Azur,Alpes-Maritimes,44.002,7.032,0.3079602737194007
06146,Tournefort,Provence-Alpes-Côte d'Azur,Alpes-Maritimes,43.941,7.158,0.291997979179581
06098,Puget-Rostang,Provence-Alpes-Côte d'Azur,Alpes-Maritimes,43.987,6.937,0.3028929535864361
06063,Gars,Provence-Alpes-Côte d'Azur,Alpes-Maritimes,43.86,6.817,0.289325943660368
06051,La Croix-sur-Roudoule,Provence-Alpes-Côte d'Azur,Alpes-Maritimes,44.0,6.87,0.2895898846981746
06061,Les Ferres,Provence-Alpes-Côte d'Azur,Alpes-Maritimes,43.842,7.093,0.2603113915612635
06081,Le Mas,Provence-Alpes-Côte d'Azur,Alpes-Maritimes,43.837,6.859,0.2989860856637376
06072,Ilonse,Provence-Alpes-Côte d'Azur,Alpes-Maritimes,44.035,7.09,0.2609517267127341
06145,Tourette-du-Château,Provence-Alpes-Côte d'Azur,Alpes-Maritimes,43.878,7.137,0.2836218393468255
06102,Rimplas,Provence-Alpes-Côte d'Azur,Alpes-Maritimes,44.103,7.145,0.3152192770556765
06047,Conségudes,Provence-Alpes-Côte d'Azur,Alpes-Maritimes,43.841,7.045,0.2684823094297407
06080,Marie,Provence-Alpes-Côte d'Azur,Alpes-Maritimes,44.035,7.157,0.2694987352594007
06110,Roubion,Provence-Alpes-Côte d'Azur,Alpes-Maritimes,44.108,7.028,0.3291856915105813
06002,Amirat,Provence-Alpes-Côte d'Azur,Alpes-Maritimes,43.896,6.813,0.3001477412067639
06124,Saint-Léger,Provence-Alpes-Côte d'Azur,Alpes-Maritimes,44.003,6.823,0.2625860244225916
06156,Venanson,Provence-Alpes-Côte d'Azur,Alpes-Maritimes,44.041,7.239,0.272580919922192
06096,Pierlas,Provence-Alpes-Côte d'Azur,Alpes-Maritimes,44.035,7.017,0.3129252766574496
06125,Saint-Martin-d'Entraunes,Provence-Alpes-Côte d'Azur,Alpes-Maritimes,44.149,6.746,0.2902237084939385
06052,Cuébris,Provence-Alpes-Côte d'Azur,Alpes-Maritimes,43.889,7.004,0.3005660926449126
06111,Roure,Provence-Alpes-Côte d'Azur,Alpes-Maritimes,44.119,7.067,0.2726246055329342
06115,Saint-Antonin,Provence-Alpes-Côte d'Azur,Alpes-Maritimes,43.908,6.977,0.3010458734965115
06008,Auvare,Provence-Alpes-Côte d'Azur,Alpes-Maritimes,44.007,6.915,0.2754065372425915
06101,Rigaud,Provence-Alpes-Côte d'Azur,Alpes-Maritimes,43.993,6.975,0.2876764475307772
06049,Courmes,Provence-Alpes-Côte d'Azur,Alpes-Maritimes,43.753,7.017,0.2826873746915316
06131,Sallagriffon,Provence-Alpes-Côte d'Azur,Alpes-Maritimes,43.881,6.914,0.2706735635325157
06087,Les Mujouls,Provence-Alpes-Côte d'Azur,Alpes-Maritimes,43.872,6.859,0.2644757097258764
06142,Touët-de-l'Escarène,Provence-Alpes-Côte d'Azur,Alpes-Maritimes,43.852,7.378,0.2910969891913188
06045,Collongues,Provence-Alpes-Côte d'Azur,Alpes-Maritimes,43.894,6.864,0.2827868195439616
06040,Châteauneuf-d'Entraunes,Provence-Alpes-Côte d'Azur,Alpes-Maritimes,44.164,6.835,0.2744765511789035
07124,Lafarre,Auvergne-Rhône-Alpes,Ardèche,45.078,4.517,0.2800800668246089
07115,Labeaume,Auvergne-Rhône-Alpes,Ardèche,44.468,4.311,0.3373386382262485
07082,Dornas,Auvergne-Rhône-Alpes,Ardèche,44.852,4.358,0.3132655061921917
07118,Laboule,Auvergne-Rhône-Alpes,Ardèche,44.596,4.17,0.2841859642356741
07094,Gilhac-et-Bruzac,Auvergne-Rhône-Alpes,Ardèche,44.863,4.745,0.2792400213230386
07136,Laveyrune,Auvergne-Rhône-Alpes,Ardèche,44.621,3.919,0.30165749805569
07025,Barnas,Auvergne-Rhône-Alpes,Ardèche,44.669,4.159,0.3023521836281129
07223,Saint-Cirgues-de-Prades,Auvergne-Rhône-Alpes,Ardèche,44.62,4.274,0.3055129615559499
07061,Chauzon,Auvergne-Rhône-Alpes,Ardèche,44.491,4.344,0.321768204935135
07049,Le Chambon,Auvergne-Rhône-Alpes,Ardèche,44.83,4.299,0.2674956676069377
07200,Le Roux,Auvergne-Rhône-Alpes,Ardèche,44.721,4.143,0.2795547515981478
07306,Sampzon,Auvergne-Rhône-Alpes,Ardèche,44.412,4.332,0.3318080841133209
07104,Issamoulenc,Auvergne-Rhône-Alpes,Ardèche,44.788,4.456,0.2807242729587102
07169,Ozon,Auvergne-Rhône-Alpes,Ardèche,45.163,4.797,0.3019652249685879
07249,Saint-Jeure-d'Andaure,Auvergne-Rhône-Alpes,Ardèche,45.048,4.464,0.304174566948929
07075,Cros-de-Géorand,Auvergne-Rhône-Alpes,Ardèche,44.8,4.128,0.3372426180587067
07148,Malbosc,Auvergne-Rhône-Alpes,Ardèche,44.35,4.073,0.2940077548969132
07209,Saint-Andéol-de-Fourchades,Auvergne-Rhône-Alpes,Ardèche,44.845,4.288,0.2835422040099163
07039,Bozas,Auvergne-Rhône-Alpes,Ardèche,45.059,4.648,0.2751638029028637
07305,Les Salelles,Auvergne-Rhône-Alpes,Ardèche,44.436,4.098,0.2957590122640196
07159,Mirabel,Auvergne-Rhône-Alpes,Ardèche,44.596,4.496,0.2972462278671241
07106,Issarlès,Auvergne-Rhône-Alpes,Ardèche,44.852,4.053,0.2954214780779483
07131,Lanas,Auvergne-Rhône-Alpes,Ardèche,44.537,4.384,0.3203586166862935
07034,Bidon,Auvergne-Rhône-Alpes,Ardèche,44.357,4.544,0.318777719126584
07318,Tauriers,Auvergne-Rhône-Alpes,Ardèche,44.552,4.273,0.2971080414846296
07222,Saint-Cierge-sous-le-Cheylard,Auvergne-Rhône-Alpes,Ardèche,44.926,4.454,0.3158563506683643
07001,Accons,Auvergne-Rhône-Alpes,Ardèche,44.888,4.392,0.3128573996566576
07108,Jaunac,Auvergne-Rhône-Alpes,Ardèche,44.92,4.393,0.3196239376499448
07220,Saint-Christol,Auvergne-Rhône-Alpes,Ardèche,44.87,4.438,0.2937440906457121
07257,Saint-Julien-le-Roux,Auvergne-Rhône-Alpes,Ardèche,44.868,4.676,0.2974382904937526
07091,Fons,Auvergne-Rhône-Alpes,Ardèche,44.581,4.347,0.3837634008507037
07283,Saint-Pierre-la-Roche,Auvergne-Rhône-Alpes,Ardèche,44.654,4.622,0.2794590791110271
07142,Lespéron,Auvergne-Rhône-Alpes,Ardèche,44.734,3.896,0.3602705564119999
07212,Saint-André-en-Vivarais,Auvergne-Rhône-Alpes,Ardèche,45.116,4.41,0.330146723664128
07073,Le Crestet,Auvergne-Rhône-Alpes,Ardèche,45.01,4.639,0.3183953364446934
07321,Thorrenc,Auvergne-Rhône-Alpes,Ardèche,45.234,4.76,0.3058154629013768
07195,La Rochette,Auvergne-Rhône-Alpes,Ardèche,44.922,4.232,0.2859623132006363
07335,Vaudevant,Auvergne-Rhône-Alpes,Ardèche,45.108,4.607,0.319956506987606
07193,Rocher,Auvergne-Rhône-Alpes,Ardèche,44.581,4.279,0.3145465057050427
07211,Saint-André-de-Cruzières,Auvergne-Rhône-Alpes,Ardèche,44.315,4.212,0.3424214712510594
07273,Saint-Maurice-d'Ibie,Auvergne-Rhône-Alpes,Ardèche,44.484,4.482,0.287146155358089
07154,Mazan-l'Abbaye,Auvergne-Rhône-Alpes,Ardèche,44.725,4.081,0.316282722410087
07092,Freyssenet,Auvergne-Rhône-Alpes,Ardèche,44.689,4.547,0.2769059211745208
07262,Saint-Laurent-les-Bains-Laval-d'Aurelle,Auvergne-Rhône-Alpes,Ardèche,44.597,3.958,0.3457419810779947
07088,Faugères,Auvergne-Rhône-Alpes,Ardèche,44.479,4.14,0.2970181070317126
07206,Saint-Alban-en-Montagne,Auvergne-Rhône-Alpes,Ardèche,44.71,3.918,0.3101500021674553
07176,Planzolles,Auvergne-Rhône-Alpes,Ardèche,44.486,4.158,0.2945744141746048
07234,Saint-Étienne-de-Valoux,Auvergne-Rhône-Alpes,Ardèche,45.243,4.777,0.3198749717789178
07214,Saint-Apollinaire-de-Rias,Auvergne-Rhône-Alpes,Ardèche,44.92,4.59,0.3182168346214613
07087,Fabras,Auvergne-Rhône-Alpes,Ardèche,44.648,4.281,0.3351111740314282
07326,Usclades-et-Rieutord,Auvergne-Rhône-Alpes,Ardèche,44.771,4.169,0.3191232699123591
07175,Le Plagnal,Auvergne-Rhône-Alpes,Ardèche,44.693,3.951,0.2974749736142229
07130,Lanarce,Auvergne-Rhône-Alpes,Ardèche,44.729,3.997,0.3885854753961708
07065,Chirols,Auvergne-Rhône-Alpes,Ardèche,44.688,4.295,0.3387493125518555
07160,Monestier,Auvergne-Rhône-Alpes,Ardèche,45.2,4.505,0.2843542766019304
07299,Saint-Symphorien-de-Mahun,Auvergne-Rhône-Alpes,Ardèche,45.156,4.55,0.2884239966401364
07133,Larnas,Auvergne-Rhône-Alpes,Ardèche,44.454,4.596,0.3046994148938027
07158,Mézilhac,Auvergne-Rhône-Alpes,Ardèche,44.807,4.342,0.3339411516810992
07062,Chazeaux,Auvergne-Rhône-Alpes,Ardèche,44.595,4.298,0.305633970164341
07190,Rochecolombe,Auvergne-Rhône-Alpes,Ardèche,44.518,4.448,0.3060060108751413
07054,Chanéac,Auvergne-Rhône-Alpes,Ardèche,44.93,4.307,0.3012686938927072
07187,Prunet,Auvergne-Rhône-Alpes,Ardèche,44.595,4.254,0.2940456796316831
07033,Bessas,Auvergne-Rhône-Alpes,Ardèche,44.338,4.298,0.307633717733594
07203,Sagnes-et-Goudoulet,Auvergne-Rhône-Alpes,Ardèche,44.801,4.216,0.309848249345966
07344,Vinzieux,Auvergne-Rhône-Alpes,Ardèche,45.331,4.702,0.3079711101949124
07144,Loubaresse,Auvergne-Rhône-Alpes,Ardèche,44.591,4.051,0.3078477749879904
07189,Ribes,Auvergne-Rhône-Alpes,Ardèche,44.504,4.198,0.3111050985619739
07282,Saint-Pierre-de-Colombier,Auvergne-Rhône-Alpes,Ardèche,44.71,4.266,0.3286231342305152
07074,Creysseilles,Auvergne-Rhône-Alpes,Ardèche,44.76,4.53,0.2947585889285628
07103,Saint-Julien-d'Intres,Auvergne-Rhône-Alpes,Ardèche,44.986,4.344,0.3382910825154676
07153,Mayres,Auvergne-Rhône-Alpes,Ardèche,44.665,4.101,0.3509562199825182
07238,Saint-Genest-de-Beauzon,Auvergne-Rhône-Alpes,Ardèche,44.445,4.187,0.3198438136604466
07123,Lachapelle-sous-Chanéac,Auvergne-Rhône-Alpes,Ardèche,44.954,4.319,0.3146217883808788
07194,Rochessauve,Auvergne-Rhône-Alpes,Ardèche,44.681,4.611,0.2962469632866379
07284,Saint-Pierre-Saint-Jean,Auvergne-Rhône-Alpes,Ardèche,44.483,4.102,0.3081603971058484
07303,Saint-Vincent-de-Durfort,Auvergne-Rhône-Alpes,Ardèche,44.792,4.638,0.2840070127159692
07215,Saint-Barthélemy-le-Meil,Auvergne-Rhône-Alpes,Ardèche,44.885,4.479,0.299440191822033
07139,Laviolle,Auvergne-Rhône-Alpes,Ardèche,44.762,4.334,0.2931090588673218
07183,Pradons,Auvergne-Rhône-Alpes,Ardèche,44.473,4.376,0.3472575186071173
07258,Saint-Julien-Vocance,Auvergne-Rhône-Alpes,Ardèche,45.167,4.488,0.2860340773428631
07170,Pailharès,Auvergne-Rhône-Alpes,Ardèche,45.08,4.557,0.3365324887593099
07038,Borne,Auvergne-Rhône-Alpes,Ardèche,44.617,4.042,0.2920263174421556
07004,Ajoux,Auvergne-Rhône-Alpes,Ardèche,44.755,4.486,0.2750748881907746
07192,Rochepaule,Auvergne-Rhône-Alpes,Ardèche,45.086,4.459,0.2993424029857019
07120,Lachamp-Raphaël,Auvergne-Rhône-Alpes,Ardèche,44.801,4.288,0.3218946297835742
07272,Saint-Maurice-d'Ardèche,Auvergne-Rhône-Alpes,Ardèche,44.519,4.405,0.3172404821239797
07047,Cellier-du-Luc,Auvergne-Rhône-Alpes,Ardèche,44.674,3.902,0.3107453602162491
07121,Lachapelle-Graillouse,Auvergne-Rhône-Alpes,Ardèche,44.812,4.019,0.3206618755810043
07285,Saint-Pierre-sur-Doux,Auvergne-Rhône-Alpes,Ardèche,45.129,4.485,0.2854688860206931
07179,Pourchères,Auvergne-Rhône-Alpes,Ardèche,44.739,4.504,0.2837607286567598
07162,Montréal,Auvergne-Rhône-Alpes,Ardèche,44.518,4.294,0.317532827772672
07208,Saint-Andéol-de-Berg,Auvergne-Rhône-Alpes,Ardèche,44.53,4.537,0.2940769879644236
07248,Saint-Jean-Roure,Auvergne-Rhône-Alpes,Ardèche,44.955,4.419,0.313444022166712
07113,Labastide-de-Virac,Auvergne-Rhône-Alpes,Ardèche,44.353,4.42,0.3397645958598954
07290,Saint-Prix,Auvergne-Rhône-Alpes,Ardèche,44.947,4.501,0.3466733871240385
07242,Saint-Gineys-en-Coiron,Auvergne-Rhône-Alpes,Ardèche,44.634,4.539,0.2897696616289863
07063,Cheminas,Auvergne-Rhône-Alpes,Ardèche,45.131,4.741,0.3075055325041871
07147,Malarce-sur-la-Thines,Auvergne-Rhône-Alpes,Ardèche,44.478,4.05,0.2980394361186807
07263,Saint-Laurent-sous-Coiron,Auvergne-Rhône-Alpes,Ardèche,44.664,4.485,0.2889667173215289
07060,Châteauneuf-de-Vernoux,Auvergne-Rhône-Alpes,Ardèche,44.925,4.642,0.3103996733921489
07098,Gourdon,Auvergne-Rhône-Alpes,Ardèche,44.729,4.455,0.3543456466562064
07275,Saint-Mélany,Auvergne-Rhône-Alpes,Ardèche,44.539,4.129,0.2891437693907105
07311,Sceautres,Auvergne-Rhône-Alpes,Ardèche,44.617,4.608,0.2936158324282309
07173,Péreyres,Auvergne-Rhône-Alpes,Ardèche,44.78,4.261,0.272599357163134
07052,Champis,Auvergne-Rhône-Alpes,Ardèche,44.956,4.752,0.3215014909308887
07266,Sainte-Marguerite-Lafigère,Auvergne-Rhône-Alpes,Ardèche,44.485,3.998,0.3025843243483569
07059,Châteaubourg,Auvergne-Rhône-Alpes,Ardèche,44.987,4.838,0.392501382641653
07202,Sablières,Auvergne-Rhône-Alpes,Ardèche,44.544,4.063,0.3147171800643595
07105,Issanlas,Auvergne-Rhône-Alpes,Ardèche,44.767,4.015,0.3035279193229776
07226,Saint-Clément,Auvergne-Rhône-Alpes,Ardèche,44.95,4.26,0.3797194574274067
07111,Juvinas,Auvergne-Rhône-Alpes,Ardèche,44.704,4.307,0.2833897875763893
07239,Saint-Genest-Lachamp,Auvergne-Rhône-Alpes,Ardèche,44.844,4.424,0.2794237538340898
07274,Saint-Maurice-en-Chalencon,Auvergne-Rhône-Alpes,Ardèche,44.855,4.582,0.2890215546933859
07218,Saint-Basile,Auvergne-Rhône-Alpes,Ardèche,44.949,4.562,0.3238402198619162
07040,Boucieu-le-Roi,Auvergne-Rhône-Alpes,Ardèche,45.029,4.688,0.3016569457567774
07151,Mars,Auvergne-Rhône-Alpes,Ardèche,45.01,4.329,0.3507886807878687
07018,Astet,Auvergne-Rhône-Alpes,Ardèche,44.685,4.027,0.2957168110907657
07137,Lavillatte,Auvergne-Rhône-Alpes,Ardèche,44.741,3.952,0.2928753688257113
08312,Murtin-et-Bogny,Grand Est,Ardennes,49.81,4.54,0.2929587431001874
08418,Sévigny-Waleppe,Grand Est,Ardennes,49.617,4.081,0.3232936995763603
08098,Champigneulle,Grand Est,Ardennes,49.352,4.928,0.3174317772232781
08286,Ménil-Annelles,Grand Est,Ardennes,49.437,4.45,0.3129640448014497
08492,Vrigne-Meuse,Grand Est,Ardennes,49.705,4.835,0.4193002330802005
08464,Vaux-lès-Mouron,Grand Est,Ardennes,49.298,4.784,0.2760888209422486
08201,Gruyères,Grand Est,Ardennes,49.71,4.604,0.2807830483197316
08036,Autry,Grand Est,Ardennes,49.266,4.831,0.2782911895966488
08062,Bertoncourt,Grand Est,Ardennes,49.539,4.401,0.2913773105815696
08452,Thugny-Trugny,Grand Est,Ardennes,49.477,4.421,0.2903464864246945
08434,Sy,Grand Est,Ardennes,49.514,4.872,0.2846427676412161
08392,Saint-Morel,Grand Est,Ardennes,49.339,4.697,0.292372288711734
08135,La Croix-aux-Bois,Grand Est,Ardennes,49.406,4.789,0.3247105804206642
08352,Raillicourt,Grand Est,Ardennes,49.652,4.591,0.2824963270017668
08433,Suzanne,Grand Est,Ardennes,49.52,4.639,0.2919028988114907
08382,Saint-Jean-aux-Bois,Grand Est,Ardennes,49.725,4.306,0.2832405551119958
08006,Alland'Huy-et-Sausseuil,Grand Est,Ardennes,49.512,4.549,0.2858214182749996
08086,Briquenay,Grand Est,Ardennes,49.404,4.869,0.3352223268023608
08128,Condé-lès-Autry,Grand Est,Ardennes,49.245,4.856,0.2752199780964877
08415,Sery,Grand Est,Ardennes,49.589,4.361,0.302844983236729
08393,Saint-Pierre-à-Arnes,Grand Est,Ardennes,49.296,4.464,0.2976360643633919
08307,Montmeillant,Grand Est,Ardennes,49.703,4.328,0.2844845020629746
08272,Maranwez,Grand Est,Ardennes,49.728,4.342,0.2894686349295782
08104,Chardeny,Grand Est,Ardennes,49.42,4.596,0.3028148459906266
08318,La Neuville-aux-Joûtes,Grand Est,Ardennes,49.933,4.241,0.2954876959579192
08103,Charbogne,Grand Est,Ardennes,49.506,4.59,0.2739954625948693
08304,Montigny-sur-Meuse,Grand Est,Ardennes,50.048,4.711,0.3065674953506267
08338,Pauvres,Grand Est,Ardennes,49.413,4.5,0.3092720583323537
08226,Hierges,Grand Est,Ardennes,50.099,4.734,0.3121438675157898
08066,Bignicourt,Grand Est,Ardennes,49.39,4.422,0.2962676419072725
08101,La Chapelle,Grand Est,Ardennes,49.761,5.024,0.3167348604442359
08323,La Neuville-lès-Wasigny,Grand Est,Ardennes,49.647,4.36,0.2898537236095311
08481,Villers-sur-Bar,Grand Est,Ardennes,49.682,4.855,0.318248356124694
08308,Mont-Saint-Martin,Grand Est,Ardennes,49.332,4.641,0.2875636670930011
08260,Lonny,Grand Est,Ardennes,49.815,4.586,0.3348487846904215
08291,Mogues,Grand Est,Ardennes,49.66,5.283,0.2876008307776489
08166,Fépin,Grand Est,Ardennes,50.022,4.707,0.377023263249463
08368,Roizy,Grand Est,Ardennes,49.426,4.186,0.3056585079661668
08494,Wadelincourt,Grand Est,Ardennes,49.68,4.931,0.3473245246316271
08310,Mouron,Grand Est,Ardennes,49.315,4.785,0.2914951050743506
08030,Auge,Grand Est,Ardennes,49.857,4.268,0.3121906100357574
08300,Le Mont-Dieu,Grand Est,Ardennes,49.55,4.859,0.284599583544128
08022,Arreux,Grand Est,Ardennes,49.826,4.661,0.3416430228095939
08058,Belval,Grand Est,Ardennes,49.773,4.638,0.3207851824124393
08321,Neuville-Day,Grand Est,Ardennes,49.5,4.692,0.3095541544635365
08242,Laifour,Grand Est,Ardennes,49.902,4.696,0.4335716831301602
08437,Tailly,Grand Est,Ardennes,49.408,5.068,0.3030133009926182
08467,Vaux-Montreuil,Grand Est,Ardennes,49.583,4.556,0.2874702082456853
08035,Autruche,Grand Est,Ardennes,49.454,4.906,0.3046334593131997
08335,Omont,Grand Est,Ardennes,49.593,4.739,0.2751428183630694
08124,Clavy-Warby,Grand Est,Ardennes,49.745,4.548,0.286442053923708
08120,Chevières,Grand Est,Ardennes,49.323,4.894,0.3075734344203515
08013,Angecourt,Grand Est,Ardennes,49.635,4.977,0.306754914897622
08424,Sommauthe,Grand Est,Ardennes,49.503,4.987,0.285171529247736
08484,Ville-sur-Retourne,Grand Est,Ardennes,49.394,4.447,0.2995515782263026
08295,Mondigny,Grand Est,Ardennes,49.712,4.637,0.2969236802620982
08429,Sormonne,Grand Est,Ardennes,49.808,4.563,0.2976793894708201
08496,Wagnon,Grand Est,Ardennes,49.647,4.446,0.2996929972572532
08426,Son,Grand Est,Ardennes,49.58,4.267,0.2819148065460722
08064,Biermes,Grand Est,Ardennes,49.477,4.384,0.29253527422977
08427,Sorbon,Grand Est,Ardennes,49.552,4.372,0.3012284332805857
08032,Aussonce,Grand Est,Ardennes,49.346,4.327,0.3034607578005036
08489,Voncq,Grand Est,Ardennes,49.474,4.681,0.2957128881392712
08406,Savigny-sur-Aisne,Grand Est,Ardennes,49.36,4.722,0.3018135088385639
08461,Vandy,Grand Est,Ardennes,49.441,4.718,0.2914487703173516
08422,Singly,Grand Est,Ardennes,49.642,4.706,0.2890533074103017
08215,Harricourt,Grand Est,Ardennes,49.439,4.924,0.300874996266077
08233,Imécourt,Grand Est,Ardennes,49.371,4.975,0.3204215958189947
08375,Sachy,Grand Est,Ardennes,49.67,5.128,0.3078705849502008
08360,Renneville,Grand Est,Ardennes,49.651,4.136,0.3086956637485991
08348,Puiseux,Grand Est,Ardennes,49.594,4.537,0.2871952004711054
08047,Barbaise,Grand Est,Ardennes,49.677,4.58,0.2793586417902985
08106,Charnois,Grand Est,Ardennes,50.102,4.831,0.3048959551323581
08411,Semuy,Grand Est,Ardennes,49.496,4.663,0.2910767384550574
08110,Le Châtelet-sur-Sormonne,Grand Est,Ardennes,49.84,4.518,0.3047013612726317
08356,Remaucourt,Grand Est,Ardennes,49.601,4.232,0.2808853334499001
08132,Corny-Machéroménil,Grand Est,Ardennes,49.582,4.455,0.2990681355360404
08060,Bergnicourt,Grand Est,Ardennes,49.419,4.247,0.323724349675682
08045,Ballay,Grand Est,Ardennes,49.422,4.752,0.3013096324772017
08247,Landrichamps,Grand Est,Ardennes,50.079,4.828,0.290744126388237
08463,Vaux-en-Dieulet,Grand Est,Ardennes,49.478,4.992,0.2863428504882903
08460,Tremblois-lès-Rocroi,Grand Est,Ardennes,49.845,4.501,0.3239189897094499
08195,Gomont,Grand Est,Ardennes,49.51,4.168,0.2748306074141366
08250,Leffincourt,Grand Est,Ardennes,49.382,4.551,0.3068796653388426
08350,Quatre-Champs,Grand Est,Ardennes,49.446,4.777,0.3070780068742226
08235,Issancourt-et-Rumel,Grand Est,Ardennes,49.757,4.828,0.2997047096575789
08061,La Berlière,Grand Est,Ardennes,49.527,4.937,0.2938568038762889
08186,Germont,Grand Est,Ardennes,49.433,4.879,0.3177821403841613
08216,Haudrecy,Grand Est,Ardennes,49.784,4.612,0.3205739277945793
08244,Lametz,Grand Est,Ardennes,49.526,4.689,0.2955687422509809
08146,Draize,Grand Est,Ardennes,49.653,4.334,0.2949453824185735
08016,Aouste,Grand Est,Ardennes,49.795,4.314,0.3066562879596037
08048,Barby,Grand Est,Ardennes,49.525,4.315,0.2818962025799867
08238,Jonval,Grand Est,Ardennes,49.569,4.663,0.2839607780900748
08038,Avançon,Grand Est,Ardennes,49.481,4.251,0.3094247296651908
08283,Mazerny,Grand Est,Ardennes,49.611,4.618,0.2980281792309907
08325,Noirval,Grand Est,Ardennes,49.458,4.794,0.3061949806226834
08450,This,Grand Est,Ardennes,49.752,4.61,0.3019052339438073
08462,Vaux-Champagne,Grand Est,Ardennes,49.446,4.549,0.3012739352737088
08044,Balham,Grand Est,Ardennes,49.491,4.151,0.273858444281783
08383,Saint-Juvin,Grand Est,Ardennes,49.338,4.954,0.3207108716245152
08155,Étalle,Grand Est,Ardennes,49.853,4.446,0.3069946229565482
08234,Inaumont,Grand Est,Ardennes,49.563,4.319,0.2908560879355114
08378,Saint-Clément-à-Arnes,Grand Est,Ardennes,49.296,4.435,0.3085686752305348
08455,Tourcelles-Chaumont,Grand Est,Ardennes,49.398,4.602,0.3009403625611994
08159,Euilly-et-Lombut,Grand Est,Ardennes,49.629,5.114,0.3093805764484015
08396,Saint-Quentin-le-Petit,Grand Est,Ardennes,49.586,4.081,0.2944820739087735
08202,Gué-d'Hossus,Grand Est,Ardennes,49.954,4.539,0.3048854969256063
08445,Thelonne,Grand Est,Ardennes,49.648,4.946,0.3242342189997703
08197,Grandham,Grand Est,Ardennes,49.291,4.855,0.2852192009851565
08469,Vendresse,Grand Est,Ardennes,49.604,4.792,0.3158568648478921
08102,Chappes,Grand Est,Ardennes,49.607,4.279,0.2799858019921499
08071,Blombay,Grand Est,Ardennes,49.816,4.454,0.2975777497233182
08014,Annelles,Grand Est,Ardennes,49.432,4.414,0.2984919988614895
08020,Les Petites-Armoises,Grand Est,Ardennes,49.501,4.828,0.2969279941448838
08063,La Besace,Grand Est,Ardennes,49.554,4.97,0.2849904685466954
08011,Anchamps,Grand Est,Ardennes,49.925,4.664,0.3838968242353782
08398,Sainte-Vaubourg,Grand Est,Ardennes,49.46,4.592,0.2924896915812259
08154,Estrebay,Grand Est,Ardennes,49.825,4.346,0.2958906988211835
08206,Ham-les-Moines,Grand Est,Ardennes,49.795,4.588,0.2971494886665432
08296,Montcheutin,Grand Est,Ardennes,49.288,4.803,0.282671404678305
08027,Auboncourt-Vauzelles,Grand Est,Ardennes,49.556,4.483,0.2918109944927395
08082,Brécy-Brières,Grand Est,Ardennes,49.332,4.756,0.2774666514208743
08334,Omicourt,Grand Est,Ardennes,49.63,4.827,0.278753197208271
08039,Avaux,Grand Est,Ardennes,49.466,4.069,0.2780727538161357
08156,Éteignières,Grand Est,Ardennes,49.891,4.403,0.3556889557540995
08313,Nanteuil-sur-Aisne,Grand Est,Ardennes,49.503,4.296,0.2888950308654815
08119,Cheveuges,Grand Est,Ardennes,49.663,4.889,0.2915454022519441
08293,Moiry,Grand Est,Ardennes,49.6,5.279,0.3032146487489577
08451,Le Thour,Grand Est,Ardennes,49.545,4.09,0.296384345420901
08169,Flaignes-Havys,Grand Est,Ardennes,49.819,4.399,0.3001245585362772
08269,Malandry,Grand Est,Ardennes,49.576,5.181,0.3040065627847608
08440,Tarzy,Grand Est,Ardennes,49.876,4.297,0.3065559233551987
08175,Foisches,Grand Est,Ardennes,50.129,4.775,0.3128573059142185
08192,Givron,Grand Est,Ardennes,49.656,4.296,0.2989535651570958
08364,Rilly-sur-Aisne,Grand Est,Ardennes,49.484,4.637,0.2899733830721077
08257,Logny-Bogny,Grand Est,Ardennes,49.776,4.388,0.2918030640901655
08476,Villers-devant-le-Thour,Grand Est,Ardennes,49.504,4.077,0.2875119582517145
08333,Olizy-Primat,Grand Est,Ardennes,49.358,4.783,0.3021618538920175
08077,Bourcq,Grand Est,Ardennes,49.382,4.618,0.3030122656109307
08217,Haulmé,Grand Est,Ardennes,49.858,4.793,0.2977293108015956
08005,Alincourt,Grand Est,Ardennes,49.403,4.345,0.2934381938705411
08095,Chagny,Grand Est,Ardennes,49.572,4.7,0.3590019458171667
08041,Baâlons,Grand Est,Ardennes,49.602,4.668,0.2835037879724208
08080,Bouvellemont,Grand Est,Ardennes,49.584,4.665,0.2925227553004748
08001,Acy-Romance,Grand Est,Ardennes,49.492,4.327,0.3167337412114506
08125,Cliron,Grand Est,Ardennes,49.809,4.612,0.3300699988098352
08138,Les Deux-Villes,Grand Est,Ardennes,49.654,5.23,0.2981764814208879
08251,Lépron-les-Vallées,Grand Est,Ardennes,49.749,4.456,0.3009447296322427
08436,Taillette,Grand Est,Ardennes,49.927,4.475,0.2994579206746588
08094,Cernion,Grand Est,Ardennes,49.799,4.426,0.2969814423149181
08339,Perthes,Grand Est,Ardennes,49.449,4.355,0.3170853206534941
08021,Arnicourt,Grand Est,Ardennes,49.554,4.342,0.3044685742712693
08379,Saint-Étienne-à-Arnes,Grand Est,Ardennes,49.308,4.511,0.300748010986732
08168,La Ferté-sur-Chiers,Grand Est,Ardennes,49.572,5.24,0.3032146487489577
08405,Sauville,Grand Est,Ardennes,49.551,4.787,0.2909199958436922
08204,Guincourt,Grand Est,Ardennes,49.556,4.628,0.2924215923093129
08500,Wignicourt,Grand Est,Ardennes,49.587,4.582,0.2799084220586682
08430,Stonne,Grand Est,Ardennes,49.55,4.922,0.2865797035415396
08243,Lalobbe,Grand Est,Ardennes,49.669,4.37,0.29704625179147
08439,Tannay,Grand Est,Ardennes,49.524,4.825,0.3691873690204171
08390,Sainte-Marie,Grand Est,Ardennes,49.371,4.672,0.3004747624454505
08256,Liry,Grand Est,Ardennes,49.305,4.643,0.2765987446998657
08123,Chuffilly-Roche,Grand Est,Ardennes,49.451,4.622,0.3119751729969041
08033,Authe,Grand Est,Ardennes,49.46,4.878,0.3111517238853745
08158,Étrépigny,Grand Est,Ardennes,49.687,4.749,0.314106382077177
08473,Vieux-lès-Asfeld,Grand Est,Ardennes,49.451,4.106,0.3096026579226605
08223,Herbeuval,Grand Est,Ardennes,49.602,5.353,0.2758369448709071
08056,Beffu-et-le-Morthomme,Grand Est,Ardennes,49.372,4.892,0.319096217845303
08432,Sury,Grand Est,Ardennes,49.766,4.612,0.2990557495587633
08160,Évigny,Grand Est,Ardennes,49.727,4.676,0.3024550768922602
08399,Sapogne-sur-Marche,Grand Est,Ardennes,49.598,5.314,0.2839269535856225
08394,Saint-Pierremont,Grand Est,Ardennes,49.489,4.945,0.2990817825096935
08401,Saulces-Champenoises,Grand Est,Ardennes,49.447,4.504,0.3036396177422255
08413,Seraincourt,Grand Est,Ardennes,49.622,4.188,0.2819846558774849
08326,Nouart,Grand Est,Ardennes,49.451,5.055,0.3000020551252892
08428,Sorcy-Bauthémont,Grand Est,Ardennes,49.541,4.538,0.2962081012895702
08287,Ménil-Lépinois,Grand Est,Ardennes,49.375,4.288,0.2910663981241734
08465,Vaux-lès-Rubigny,Grand Est,Ardennes,49.69,4.183,0.3053205885831849
08161,Exermont,Grand Est,Ardennes,49.294,5.022,0.3097768157938936
08259,Longwé,Grand Est,Ardennes,49.386,4.8,0.3212531891576664
08205,Hagnicourt,Grand Est,Ardennes,49.611,4.584,0.2919434424458006
08096,Chalandry-Elaire,Grand Est,Ardennes,49.708,4.756,0.3374565054086616
08483,Ville-sur-Lumes,Grand Est,Ardennes,49.756,4.796,0.3443096105426721
08246,Landres-et-Saint-Georges,Grand Est,Ardennes,49.352,5.013,0.3174267571693856
08456,Tournavaux,Grand Est,Ardennes,49.873,4.784,0.3013587965316201
08059,Belval-Bois-des-Dames,Grand Est,Ardennes,49.482,5.044,0.2923837650828731
08137,Damouzy,Grand Est,Ardennes,49.808,4.683,0.3102560042500435
08459,Tremblois-lès-Carignan,Grand Est,Ardennes,49.662,5.26,0.2922029657298179
08358,Remilly-les-Pothées,Grand Est,Ardennes,49.784,4.547,0.2802510092569138
08274,Marcq,Grand Est,Ardennes,49.314,4.92,0.3163759841054523
08148,L'Écaille,Grand Est,Ardennes,49.41,4.21,0.3123332412144026
08320,La Neuville-en-Tourne-à-Fuy,Grand Est,Ardennes,49.347,4.393,0.3059107948682641
08438,Taizy,Grand Est,Ardennes,49.511,4.258,0.2754124932621107
08384,Saint-Lambert-et-Mont-de-Jeux,Grand Est,Ardennes,49.498,4.625,0.278462433768605
08196,Grandchamp,Grand Est,Ardennes,49.652,4.407,0.2947824643321174
08344,Prez,Grand Est,Ardennes,49.802,4.361,0.3012284173393804
08374,La Sabotterie,Grand Est,Ardennes,49.545,4.67,0.2960441587703358
08136,Daigny,Grand Est,Ardennes,49.705,5.001,0.3281285853279284
08252,Létanne,Grand Est,Ardennes,49.544,5.08,0.2960174000987889
08171,Fléville,Grand Est,Ardennes,49.309,4.981,0.3091840807314997
08277,Marlemont,Grand Est,Ardennes,49.746,4.381,0.290796508003944
08324,Neuvizy,Grand Est,Ardennes,49.627,4.539,0.2967991163267004
08176,Fossé,Grand Est,Ardennes,49.45,5.005,0.298996148221526
08182,Le Fréty,Grand Est,Ardennes,49.734,4.262,0.2824172695623583
08167,La Férée,Grand Est,Ardennes,49.758,4.304,0.2929984856060268
08019,Les Grandes-Armoises,Grand Est,Ardennes,49.529,4.899,0.2913907081667244
08111,Le Châtelet-sur-Retourne,Grand Est,Ardennes,49.41,4.274,0.3404653287992193
08470,Verpel,Grand Est,Ardennes,49.382,4.929,0.3220037880265265
08240,Justine-Herbigny,Grand Est,Ardennes,49.605,4.326,0.2933856837443071
08377,Saint-Aignan,Grand Est,Ardennes,49.655,4.852,0.3086240812280928
08301,Montgon,Grand Est,Ardennes,49.512,4.719,0.293939786300159
08279,Mars-sous-Bourcq,Grand Est,Ardennes,49.401,4.641,0.3031537425133829
08305,Montigny-sur-Vence,Grand Est,Ardennes,49.645,4.612,0.3063678332714791
08332,Oches,Grand Est,Ardennes,49.507,4.929,0.2942602402801705
08255,Linay,Grand Est,Ardennes,49.616,5.229,0.3017663298564531
08336,Osnes,Grand Est,Ardennes,49.659,5.158,0.304901518614718
08084,Brienne-sur-Aisne,Grand Est,Ardennes,49.426,4.062,0.3010962242131517
08100,Champlin,Grand Est,Ardennes,49.835,4.326,0.3018363276198282
08219,Hauteville,Grand Est,Ardennes,49.583,4.299,0.2871786205535971
08150,Écly,Grand Est,Ardennes,49.554,4.288,0.2813281952089997
08501,Williers,Grand Est,Ardennes,49.669,5.301,0.2872077380109568
08189,Girondelle,Grand Est,Ardennes,49.852,4.386,0.3126563741414396
08087,Brognon,Grand Est,Ardennes,49.933,4.28,0.2900392568584595
08193,Givry,Grand Est,Ardennes,49.489,4.531,0.3654738426946463
08468,Vaux-Villaine,Grand Est,Ardennes,49.769,4.473,0.2999628992875929
08034,Autrecourt-et-Pourron,Grand Est,Ardennes,49.607,5.018,0.3215363720210015
08143,Doumely-Bégny,Grand Est,Ardennes,49.634,4.306,0.2890618200128447
08268,Maisoncelle-et-Villers,Grand Est,Ardennes,49.59,4.918,0.2948165197297508
08029,Auflance,Grand Est,Ardennes,49.615,5.296,0.2839269535856225
08454,Touligny,Grand Est,Ardennes,49.677,4.615,0.2584724799831948
08372,Rubigny,Grand Est,Ardennes,49.688,4.206,0.304624112132477
08397,Saint-Remy-le-Petit,Grand Est,Ardennes,49.4,4.232,0.3069527379296372
08065,Bièvres,Grand Est,Ardennes,49.557,5.278,0.374592279993184
08306,Mont-Laurent,Grand Est,Ardennes,49.464,4.478,0.3032932517031078
08400,Sapogne-et-Feuchères,Grand Est,Ardennes,49.66,4.8,0.3130967277005128
08412,Senuc,Grand Est,Ardennes,49.308,4.852,0.2955633771965052
08092,Cauroy,Grand Est,Ardennes,49.351,4.459,0.3038546540981673
08410,Semide,Grand Est,Ardennes,49.329,4.576,0.2878645158588102
08164,Falaise,Grand Est,Ardennes,49.384,4.741,0.2906678071236196
08200,Grivy-Loisy,Grand Est,Ardennes,49.427,4.64,0.3028846331025725
08203,Guignicourt-sur-Vence,Grand Est,Ardennes,49.689,4.633,0.2944824176735653
08131,Cornay,Grand Est,Ardennes,49.299,4.934,0.302569915862658
08416,Seuil,Grand Est,Ardennes,49.474,4.453,0.3135756992448431
08275,Margny,Grand Est,Ardennes,49.617,5.361,0.2735872411318817
08319,Neuville-lez-Beaulieu,Grand Est,Ardennes,49.906,4.353,0.306315677511182
08088,Bulson,Grand Est,Ardennes,49.629,4.914,0.2846098428993024
08046,Banogne-Recouvrance,Grand Est,Ardennes,49.57,4.132,0.2844687372600416
08023,Artaise-le-Vivier,Grand Est,Ardennes,49.572,4.893,0.277141267595569
08117,Chesnois-Auboncourt,Grand Est,Ardennes,49.561,4.567,0.2957919388303382
08309,Mont-Saint-Remy,Grand Est,Ardennes,49.387,4.477,0.3140429618849745
08351,Quilly,Grand Est,Ardennes,49.406,4.582,0.3023104500269665
08317,La Neuville-à-Maire,Grand Est,Ardennes,49.58,4.856,0.2812451668993504
08069,Blanchefosse-et-Bay,Grand Est,Ardennes,49.767,4.252,0.2874309960360982
08004,Aire,Grand Est,Ardennes,49.471,4.164,0.2736791330830163
08075,Boult-aux-Bois,Grand Est,Ardennes,49.419,4.835,0.3173892923715588
08017,Apremont,Grand Est,Ardennes,49.259,4.968,0.310465639873076
08163,Faissault,Grand Est,Ardennes,49.609,4.506,0.3023577778644479
08485,Villy,Grand Est,Ardennes,49.594,5.221,0.3111983612859494
08130,Contreuve,Grand Est,Ardennes,49.362,4.616,0.2847893264434566
08165,Faux,Grand Est,Ardennes,49.537,4.504,0.3040430119713538
08444,Tétaigne,Grand Est,Ardennes,49.649,5.117,0.3078705849502008
08229,Houdilcourt,Grand Est,Ardennes,49.423,4.126,0.2852693582547363
08395,Saint-Pierre-sur-Vence,Grand Est,Ardennes,49.702,4.683,0.3005831194807671
08099,Champigneul-sur-Vence,Grand Est,Ardennes,49.704,4.664,0.3036745280444762
08479,Villers-le-Tourneur,Grand Est,Ardennes,49.622,4.564,0.3027056428235697
08141,Dommery,Grand Est,Ardennes,49.68,4.482,0.2952157400656514
08389,Saint-Marcel,Grand Est,Ardennes,49.768,4.575,0.3703817379195898
08208,Hannappes,Grand Est,Ardennes,49.817,4.234,0.3009539048675836
08153,Escombres-et-le-Chesnois,Grand Est,Ardennes,49.697,5.126,0.2953607862734504
08342,Pouru-aux-Bois,Grand Est,Ardennes,49.71,5.098,0.3256682104567126
08149,L'Échelle,Grand Est,Ardennes,49.805,4.484,0.300272051233155
08380,Saint-Fergeux,Grand Est,Ardennes,49.573,4.201,0.2690628390711786
08271,Manre,Grand Est,Ardennes,49.257,4.655,0.2716795420012033
08280,Marvaux-Vieux,Grand Est,Ardennes,49.288,4.69,0.2782149302151222
08466,Vaux-lès-Mouzon,Grand Est,Ardennes,49.603,5.137,0.3210209924937896
08502,Yoncq,Grand Est,Ardennes,49.568,5.017,0.2917919858857735
08178,Fraillicourt,Grand Est,Ardennes,49.664,4.168,0.3010033003083832
08446,Thénorgues,Grand Est,Ardennes,49.406,4.921,0.3144419798954118
08052,Bayonville,Grand Est,Ardennes,49.396,5.011,0.3104619643748705
08225,Herpy-l'Arlésienne,Grand Est,Ardennes,49.526,4.188,0.2747914093676593
08407,Séchault,Grand Est,Ardennes,49.272,4.737,0.2872752954903121
08431,Sugny,Grand Est,Ardennes,49.355,4.661,0.2923407989532423
08315,Neufmaison,Grand Est,Ardennes,49.758,4.512,0.295920162028571
08134,Coulommes-et-Marqueny,Grand Est,Ardennes,49.43,4.574,0.2991849792254991
08425,Sommerance,Grand Est,Ardennes,49.326,4.993,0.3217889437512451
08220,Hauviné,Grand Est,Ardennes,49.316,4.412,0.3034312225677004
08172,Fligny,Grand Est,Ardennes,49.884,4.265,0.3020451410192218
08097,Challerange,Grand Est,Ardennes,49.308,4.746,0.3246126012406448
08294,La Moncelle,Grand Est,Ardennes,49.693,4.996,0.3192089675997722
08249,Laval-Morency,Grand Est,Ardennes,49.83,4.494,0.3095351352857614
08386,Saint-Loup-en-Champagne,Grand Est,Ardennes,49.453,4.215,0.3058392418926949
08503,Yvernaumont,Grand Est,Ardennes,49.675,4.663,0.3088893292532759
08482,Villers-sur-le-Mont,Grand Est,Ardennes,49.663,4.679,0.3048375037905002
08376,Sailly,Grand Est,Ardennes,49.6,5.174,0.3017780181984247
08404,Sault-Saint-Remy,Grand Est,Ardennes,49.425,4.157,0.2983768742527607
08288,Mesmont,Grand Est,Ardennes,49.618,4.399,0.3003508123592272
08184,Fromy,Grand Est,Ardennes,49.601,5.256,0.3102686922697656
08347,Puilly-et-Charbeaux,Grand Est,Ardennes,49.636,5.275,0.2885654343443948
08228,La Horgne,Grand Est,Ardennes,49.624,4.677,0.2864219729390606
08207,Ham-sur-Meuse,Grand Est,Ardennes,50.09,4.783,0.3084663891275156
08018,Ardeuil-et-Montfauxelles,Grand Est,Ardennes,49.267,4.705,0.2844719411099074
08010,Ambly-Fleury,Grand Est,Ardennes,49.489,4.489,0.2942248540605559
08070,Blanzy-la-Salonnaise,Grand Est,Ardennes,49.488,4.19,0.2865662356671053
08477,Villers-devant-Mouzon,Grand Est,Ardennes,49.627,5.018,0.3050344324971552
08049,Bar-lès-Buzancy,Grand Est,Ardennes,49.447,4.958,0.3095767200690617
08278,Marquigny,Grand Est,Ardennes,49.548,4.705,0.2910292436622051
08453,Toges,Grand Est,Ardennes,49.426,4.785,0.3033769941597107
08478,Villers-le-Tilleul,Grand Est,Ardennes,49.627,4.728,0.276191006771438
08355,Regniowez,Grand Est,Ardennes,49.926,4.415,0.2944375377538006
08074,Bouconville,Grand Est,Ardennes,49.258,4.773,0.2728402656869874
08273,Marby,Grand Est,Ardennes,49.835,4.427,0.3059462499753894
08031,Aure,Grand Est,Ardennes,49.276,4.624,0.2708728900514811
08073,Bossus-lès-Rumigny,Grand Est,Ardennes,49.84,4.256,0.3015605145295992
08144,Doux,Grand Est,Ardennes,49.517,4.428,0.2936292714640903
08126,Condé-lès-Herpy,Grand Est,Ardennes,49.542,4.198,0.2723098397876457
08387,Saint-Loup-Terrier,Grand Est,Ardennes,49.572,4.613,0.2908583801949799
08471,Verrières,Grand Est,Ardennes,49.496,4.885,0.2888201371354337
08388,Saint-Marceau,Grand Est,Ardennes,49.706,4.72,0.3001292810990609
08170,Fleigneux,Grand Est,Ardennes,49.776,4.964,0.3051850655698528
08369,La Romagne,Grand Est,Ardennes,49.684,4.306,0.293867884833905
08417,Sévigny-la-Forêt,Grand Est,Ardennes,49.879,4.479,0.3108394103465305
08109,Chatel-Chéhéry,Grand Est,Ardennes,49.279,4.952,0.3077862117868599
08015,Antheny,Grand Est,Ardennes,49.844,4.305,0.3008814507591493
08121,Chilly,Grand Est,Ardennes,49.842,4.471,0.3082142011681712
08245,Lançon,Grand Est,Ardennes,49.275,4.888,0.2808389859035002
08421,Signy-Montlibert,Grand Est,Ardennes,49.578,5.311,0.2947217737224472
09087,Caussou,Occitanie,Ariège,42.772,1.822,0.2691257667207031
09174,Loubières,Occitanie,Ariège,43.01,1.594,0.3243589124169064
09067,Brie,Occitanie,Ariège,43.207,1.516,0.2710607503185514
09159,Lassur,Occitanie,Ariège,42.741,1.718,0.2731767026906041
09203,Montels,Occitanie,Ariège,43.006,1.47,0.280840348426445
09078,Carcanières,Occitanie,Ariège,42.708,2.124,0.2387025502633792
09023,Ascou,Occitanie,Ariège,42.719,1.932,0.3075139501003167
09098,Contrazy,Occitanie,Ariège,43.058,1.207,0.2464152059434605
09088,Caychax,Occitanie,Ariège,42.807,1.728,0.257244362394156
09330,Vernaux,Occitanie,Ariège,42.786,1.782,0.267482690317668
09020,Artigues,Occitanie,Ariège,42.69,2.038,0.260070071630046
09243,Régat,Occitanie,Ariège,42.988,1.887,0.2730008565363954
09247,Rivèrenert,Occitanie,Ariège,42.951,1.262,0.2859634679046745
09133,Génat,Occitanie,Ariège,42.829,1.566,0.2609742276481336
09022,Arvigna,Occitanie,Ariège,43.059,1.729,0.2669514893202096
09307,Taurignan-Castet,Occitanie,Ariège,43.06,1.102,0.2876073946074775
09095,Cescau,Occitanie,Ariège,42.929,1.048,0.2904671027621495
09063,Le Bosc,Occitanie,Ariège,42.933,1.446,0.2590700240288489
09001,Aigues-Juntes,Occitanie,Ariège,43.051,1.472,0.2692962370800037
09226,Pech,Occitanie,Ariège,42.763,1.688,0.2703350944931454
09230,Le Pla,Occitanie,Ariège,42.688,2.056,0.2694214059150008
09228,Perles-et-Castelet,Occitanie,Ariège,42.719,1.774,0.2991683975733896
09013,Arabaux,Occitanie,Ariège,42.98,1.634,0.2707335970919804
09204,Montesquieu-Avantès,Occitanie,Ariège,43.035,1.216,0.2862044095529056
09114,Erp,Occitanie,Ariège,42.935,1.2,0.2838598307088794
09287,Senconac,Occitanie,Ariège,42.813,1.717,0.2588460850771178
09136,Gourbit,Occitanie,Ariège,42.828,1.516,0.2752389747450804
09059,Bonac-Irazein,Occitanie,Ariège,42.841,0.983,0.2833963626004651
09183,Mauvezin-de-Prat,Occitanie,Ariège,43.032,0.992,0.2783201399316982
09128,Gajan,Occitanie,Ariège,43.037,1.135,0.2824582164609492
